Date, Area, Obs, Grid,X,Y,Lat,Long, Alt, Aspect, Incline, Location, Air Temp, Wind Dir, Wind Speed, Cloud, Precip Code, Drift, Total Snow Depth, Foot Pen, Ski Pen, Rain at 900, Summit Air Temp, Summit Wind Dir, Summit Wind Speed, Observed aval. hazard, Forecast aval. hazard, Avalanche Code, Max Temp Grad, Max Hardness Grad, No Settle, Snow Index, Insolation, Crystals, Wetness, AV Cat, Snow Temp, Comments,
2022/04/17 12:20,Creag Meagaidh,TR,451891,245100,789100,56.967093,-4.5495269,570,360,0,Coire Ardair,8.1,180.00,10,100,0 - None,0,0,0,0,0,4,180,20,Low,Low,0,,,234,0,20,0,2,0,0,"Patchy, isothermal snowpack. Weather obs only.",
2022/04/17 12:10,Northern Cairngorms,KG,997042,299700,704200,56.219756,-3.6190145,1020,40,30,Cas Ridge E side,5.3,225.00,25,100,0 - None,0,110,5,0,0,4,173,39,Low,Low,0,0,2,328,0,20,0,2,0,0,,
2022/04/17 12:00,Lochaber,GM,,,,,,675,,0,Ben Nevis,8.7,255.00,10,100,0 - None,0,0,0,0,0,3.6,,0,Low,Low,0,,,210,0,20,0,2,0,0,Weather observations only. Stable snowpack,
2022/04/17 11:57,Torridon,AC,150776,215000,777600,56.852869,-5.0355143,341,187,10,"Meall an t-Sithe, The Fain.",12.1,135.00,8,100,0 - None,0,0,0,0,0,4,180,20,Low,Low,0,,,256,0,20,0,2,0,0,No snow at observation site.,
2022/04/17 11:30,Southern Cairngorms,SN,206847,220600,784700,56.918763,-4.9488341,950,350,20,Carn an t-Sagairt Mor,5.5,180.00,15,100,0 - None,0,48,2,0,0,6.2,190,30,Low,Low,0,0,2,170,0,20,0,2,0,0,,
2022/04/17 11:10,Glencoe,PM,257504,225700,750400,56.612957,-4.8418044,940,70,36,Meall a\' Bhuiridh,5.1,180.00,7,100,0 - None,0,70,10,0,1,4.5,200,10,Low,Low,0,0,1,272,0,20,0,2,0,0,Stable snowpack.,
2022/04/16 12:45,Creag Meagaidh,TR/WS,391861,239100,786100,56.938123,-4.6461921,900,142,30,"Coire na h-Uamha, Beinn a Chaorainn",6,180.00,25,100,0 - None,0,57,6,0,0,4.3,177,30,Low,Low,0,0,2,234,0,20,0,2,0,0,"Patchy, thawing, stable snowpack.",
2022/04/16 12:00,Lochaber,GM,,,,,,1200,,0,Aonach Mor,0,,0,100,0 - None,0,0,0,0,0,4.2,135,25,Low,Low,0,,,210,0,20,0,2,0,0,Stable snowpack. Weather observations only,
2022/04/16 11:45,Southern Cairngorms,SN,160770,216000,777000,56.847883,-5.0187069,970,20,30,"Coire Fionn, Glas Maol",4.5,180.00,5,100,0 - None,0,38,2,0,0,4.7,180,24,Low,Low,0,0,1,170,0,20,0,2,0,0,,
2022/04/16 11:30,Northern Cairngorms,KG,995034,299500,703400,56.212529,-3.6219347,935,150,25,Moraines Sneachda,4.8,40.00,25,100,0 - None,0,50,5,0,0,3,165,33,Low,Low,0,0,2,328,0,20,0,2,0,0,,
2022/04/16 11:10,Torridon,KM,992633,299200,763300,56.750386,-3.6499548,550,,0,Loch Allt an Daraich (Beinn Eighe),9,160.00,10,90,0 - None,0,0,0,0,0,6,160,15,Low,Low,0,,,256,0,20,0,2,0,0,No snow data.,
2022/04/16 10:50,Glencoe,PM,257504,225700,750400,56.612957,-4.8418044,940,70,35,Meall a\' Bhuiridh,5.6,160.00,5,100,0 - None,0,70,12,0,0,4.4,155,7,Low,Low,0,0,1,272,0,20,0,1,0,0,Stable snowpack.,
2022/04/15 12:45,Southern Cairngorms,PN,252856,225200,785600,56.928597,-4.8739951,850,30,26,"Lochnagar, around practice rocks.",6.8,35.00,6,100,0 - None,0,60,3,0,0,7,180,25,Low,Low,0,0,2,170,0,20,0,1,0,0,,
2022/04/15 12:28,Glencoe,PM,257507,225700,750700,56.615649,-4.8420067,860,65,33,Meall a\' Bhuiridh,5,160.00,6,100,0 - None,0,50,8,0,0,3.9,162,20,Low,Low,0,0,1,272,0,20,0,1,0,0,,
2022/04/15 12:00,Northern Cairngorms,KG,980025,298000,702500,56.204127,-3.6457614,950,60,25,Twin Burns Lochain,5.2,180.00,25,80,0 - None,0,40,5,0,0,4,187,19,Low,Low,0,0,2,328,0,20,0,2,0,0,,
2022/04/15 12:00,Torridon,KM,940610,294000,761000,56.728579,-3.7339934,630,,0,Beinn Eigh: Coire Mhic Fhearchair,9.7,170.00,5,100,0 - None,0,0,0,0,0,6,160,10,Low,Low,0,,,256,0,20,0,2,0,0,No snow at site.,
2022/04/15 11:45,Creag Meagaidh,GP,427885,242700,788500,56.960898,-4.5885847,915,100,15,"Inner Coire, Coire Ardair, Approach slopes to the window",6.4,100.00,20,95,0 - None,0,130,1,0,0,5,155,22,Low,Low,0,0,1,234,0,20,0,2,0,0,,
2022/04/15 11:00,Lochaber,GM,187744,218700,774400,56.82562,-4.972652,950,345,20,Aonach Mor Met readings,6.8,10.00,15,90,0 - None,0,40,5,0,0,3.8,,0,Low,Low,0,0,0,210,0,20,0,2,0,0,Stable snowpack,
2022/04/14 13:10,Southern Cairngorms,PN,159771,215900,777100,56.848741,-5.0204164,910,45,30,Corrie Fionn,4.2,200.00,6,100,0 - None,0,80,3,0,0,5,276,17,Low,Low,0,0,3,170,0,20,0,1,0,0,"Cloud base at 700 metres, little visibility on hill today.",
2022/04/14 12:00,Creag Meagaidh,WS,452895,245200,789500,56.970716,-4.5481291,700,,0,Coire a Chriochaerin,8.1,180.00,10,100,0 - None,0,0,0,0,1,6,180,18,Low,Low,0,,,234,0,20,0,2,0,0,Weather Obs only / no snow at site,
2022/04/14 11:20,Glencoe,PM,257503,225700,750300,56.612059,-4.8417369,930,65,34,Meall a' Bhuiridh,5,218.00,6,100,0 - None,0,60,13,0,1,5,215,10,Low,Low,0,0,1,272,0,20,0,2,0,0,Thawing snowpack.,
2022/04/14 11:20,Lochaber,GP,173371,217300,737100,56.490433,-4.9691119,1080,120,35,Carn Dearg Meadhonach,5.5,210.00,30,100,0 - None,0,44,1,0,0,4.6,220,25,Low,Low,0,0,1,210,0,20,0,2,0,0,,
2022/04/14 11:05,Northern Cairngorms,AT,994020,299400,702000,56.199935,-3.6230149,1082,93,25,Coire Domhain,5.7,275.00,5,80,0 - None,0,380,8,0,1,4,276,24,Low,Low,0,0,2,328,0,20,0,2,0,0,,
2022/04/14 11:05,Torridon,KM,966595,296600,759500,56.715693,-3.6909175,800,120,30,Beinn Eighe: Coire an Laoigh,6.2,160.00,10,100,0 - None,0,65,12,0,1,5,180,10,Low,Low,0,0,1,256,0,20,0,2,0,0,,
2022/04/13 12:00,Creag Meagaidh,WS,449895,244900,789500,56.970616,-4.5530587,700,,0,"Coire a Chriochaerin, Boundary Wall gully",6,270.00,10,100,,0,0,0,0,1,3,270,26,,,0,,,234,0,20,0,2,0,0,"Weather obs only; cloudy, damp and misty no snow at site",
2022/04/13 11:45,Glencoe,AP,258503,225800,750300,56.612097,-4.8401097,900,45,35,Meall a Bhuiridh,4.2,240.00,15,100,0 - None,0,60,10,0,1,3,245,21,Low,Low,0,0,2,272,0,20,0,2,0,0,Overnight rain mainly dry today,
2022/04/13 11:30,Southern Cairngorms,PN,210844,221000,784400,56.916227,-4.9420607,1000,45,28,"Carn an t-Saggairt Mor, NE aspect.",1.4,325.00,10,100,0 - None,0,60,8,0,0,2.8,181,14,Low,Low,0,0,3,170,0,20,0,1,0,0,,
2022/04/13 11:20,Northern Cairngorms,AT,998033,299800,703300,56.211695,-3.6170622,1105,263,40,"Windy Col, Coire an t-Sneachda",0.9,281.00,25,100,4 - Light Showers,0,225,10,0,1,1,160,16,Low,Moderate,0,0,1,324,0,20,0,2,0,0,,
2022/04/13 11:00,Lochaber,GM,187745,218700,774500,56.826517,-4.9727231,900,15,15,Aonach Mor Met readings,6.3,280.00,10,100,0 - None,0,40,2,0,0,2.5,,0,Low,Low,0,0,0,210,0,20,0,2,0,0,Stable snowpack,
2022/04/13 10:47,Torridon,AC,150776,215000,777600,56.852869,-5.0355143,337,181,10,"Meall an t-Sithe, Fain.",7.3,34.00,1,100,2 - Trace,0,0,0,0,1,3,315,9,Low,Low,0,,,254,0,20,0,2,0,0,No snow at observation site.,
2022/04/12 12:48,Southern Cairngorms,PN,160772,216000,777200,56.849678,-5.0188515,930,30,24,Corrie Fionn,1.9,145.00,10,100,0 - None,0,80,8,0,0,2.4,139,45,Low,Low,0,0,2,170,0,20,0,1,0,0,,
2022/04/12 12:45,Creag Meagaidh,TR,446876,244600,787600,56.953464,-4.5568193,910,272,25,"Coire nan Gamhna, Coire Ardair",3.2,160.00,5,100,2 - Trace,0,83,11,0,0,1,165,15,Low,Low,0,0,1,232,0,20,0,2,0,0,"Snow profile on an isolated patch of older windslab set amongst wide expanses of coarse-grained old snow. Very poor visibility above 750m. Worrying rumbling noise from upper Coire Ardair at 1230hrs - possibly falling ice, rocks or cornice?",
2022/04/12 12:28,Torridon,GP,985607,298500,760700,56.726886,-3.660366,900,140,30,"Creag Dubh, Beinn Eighe",2.3,120.00,15,100,0 - None,0,63,15,0,0,2,110,15,Low,Low,0,0,1,254,0,20,0,2,0,0,,
2022/04/12 12:00,Glencoe,AP,256507,225600,750700,56.615611,-4.8436341,900,20,25,Meall a Bhuiridh,2.2,100.00,20,100,0 - None,0,50,10,0,1,2,90,17,Low,Low,0,0,3,272,0,20,0,2,0,0,"Thick mist and occasional drizzle today, overnight rain.",
2022/04/12 11:55,Northern Cairngorms,JS KG MD,001041,210000,741000,56.52253,-5.0903388,1080,290,25,Coire Cas ,1.2,120.00,10,100,0 - None,0,80,12,0,0,0,139,45,Low,Moderate,0,0,3,324,0,20,0,2,0,0,,
2022/04/12 11:35,Lochaber,GM,167721,216700,772100,56.804202,-5.0037232,715,285,10,Ben Nevis,3.6,135.00,25,90,0 - None,0,35,3,0,0,0.4,,0,Low,Low,0,0,0,210,0,20,0,2,0,0,Stable snowpack,
2022/04/11 12:58,Glencoe,AP,258503,225800,750300,56.612097,-4.8401097,900,30,30,Meall a Bhuiridhh,1.3,120.00,20,50,0 - None,0,50,15,0,0,1,110,35,Low,Low,0,0.1,3,272,0,20,0,2,0,-0.1,,
2022/04/11 12:15,Northern Cairngorms,KG,001048,210000,748000,56.585326,-5.0954656,1000,290,30,Coronation Wall,0,150.00,30,70,0 - None,1,30,20,0,0,-1,175,22,Moderate,Moderate,0,0.1,3,324,0,20,5,1,0,-0.2,"Heavy drifting, humid conditions.",
2022/04/11 12:00,Southern Cairngorms,PN,251855,225100,785500,56.927662,-4.8755669,910,30,26,"Central Gully, Lochnagar.",0.2,80.00,12,85,0 - None,0,70,13,0,0,1,153,23,Moderate,Moderate,0,0,2,170,0,20,0,1,0,0,,
2022/04/11 12:00,Lochaber,GM,,,,,,650,,0,Aonach Mor Met readings,6.2,148.00,68,100,0 - None,0,0,0,0,0,0,,0,Low,Low,0,,,210,0,20,0,2,0,0,Weather observations only,
2022/04/11 12:00,Creag Meagaidh,TR,428885,242800,788500,56.960932,-4.586942,920,90,30,"Inner Coire, Coire Ardair. Approach slopes to The Window.",2.8,150.00,25,80,2 - Trace,0,67,8,0,0,0,150,45,Low,Low,0,0,2,230,0,20,0,2,0,0,"Isothermal snowpack at snowpit site. Drier, colder snow near summits. A trace of drifting above 1000m.",
2022/04/11 11:00,Torridon,GP,221695,222100,769500,56.782971,-4.9136023,897,187,20,"Meall Gorm, Fannichs",2.7,120.00,30,80,0 - None,0,43,7,0,0,2,110,20,Low,Low,0,0,0,254,0,20,0,2,0,0,,
2022/04/10 12:30,Glencoe,AP,256505,225600,750500,56.613817,-4.8434991,1000,30,35,Meall a Bhuiridh,0.3,180.00,1,80,4 - Light Showers,1,70,15,0,0,-2,180,12,Low,Low,0,0.6,2,268,0,20,0,2,0,-0.6,Localised areas of windslab from overnight snow.,
2022/04/10 11:50,Northern Cairngorms,JS KG,014053,,,,,1050,60,20,Chap Coire na Spreidhe ,-0.7,260.00,10,100,0 - None,0,3,10,0,0,-4,258,26,Moderate,Considerable -,0,1.3,2,324,0,20,5,1,0,-1.4,,
2022/04/10 11:30,Lochaber,DG/GM,166721,216600,772100,56.804162,-5.0053584,700,300,10,Ben Nevis,3.7,245.00,5,100,0 - None,0,40,4,0,0,-2.2,,0,Low,Low,0,0,3,210,0,20,0,2,0,0,,
2022/04/10 10:55,Torridon,GP,966595,296600,759500,56.715693,-3.6909175,840,150,30,"Coire an Laoigh, Beinn Eighe",1.2,240.00,5,95,0 - None,0,43,20,0,0,-1,220,15,Low,Low,0,0.4,1,254,0,20,0,1,0,-0.4,,
2022/04/10 10:50,Creag Meagaidh,MB,447898,244700,789800,56.973241,-4.5565296,916,96,40,Sron Coire a Chriochairein,0.8,0.00,0,70,0 - None,0,193,11,0,0,-1,220,7,Low,Low,0,0.1,2,230,0,20,0,1,0,-0.1,,
2022/04/10 10:45,Southern Cairngorms,SN,155773,215500,777300,56.850376,-5.0271101,910,190,25,"Meall Odhar, South aspect",0,240.00,5,90,0 - None,0,80,20,0,0,0.5,293,22,Moderate,Moderate,0,0.1,3,170,0,20,0,1,0,0,Stubborn clean shear at 32cm  - rounds on wet grains.,
2022/04/09 14:02,Southern Cairngorms,SN,260856,226000,785600,56.928898,-4.8608678,900,130,25,Meikle Pap Col,-0.4,320.00,10,100,4 - Light Showers,1,130,18,0,0,-2.7,322,37,Moderate,Moderate,0,1.4,1,166,0,20,0,1,0,-1.5,Multi layered snowpack  - easy shears in surface layers but progressively more stable with depth,
2022/04/09 12:45,Creag Meagaidh,WS/TR,594775,259400,777500,56.867542,-4.3081005,810,102,26,"Geal Charn 917m, West Drumochter.",0,330.00,15,70,2 - Trace,0,37,2,0,0,-1,342,20,Low,Low,0,0.7,2,228,0,20,0,1,0,-0.2,Little new snow. Some late brief snow showers.,
2022/04/09 12:00,Glencoe,AP,258503,225800,750300,56.612097,-4.8401097,900,30,30,Meall a Bhuiridh,-1.4,320.00,15,80,2 - Trace,1,70,10,0,0,-3,315,18,Low,Low,0,0.4,2,266,0,20,0,2,0,-0.5,Trace of new snow.,
2022/04/09 11:30,Lochaber,GM,186744,218600,774400,56.825581,-4.9742882,960,10,15,Aonach Mor,-2.5,270.00,5,100,0 - None,0,60,12,0,0,-4.8,,0,Low,Low,0,1.5,2,210,0,20,0,1,0,-2.5,,
2022/04/09 11:30,Northern Cairngorms,JS KG,011043,,,,,1100,100,20,East side of Cairngorm,-4.1,320.00,25,100,6 - Snow Showers,1,3,15,0,0,-4,288,41,Moderate,Moderate,0,1,2,318,0,20,5,1,0,-3.8,,
2022/04/09 11:11,Torridon,AC,224734,222400,773400,56.818076,-4.9114118,705,89,28,"Beinn Liath Mhor Fannaich, North Top.",-1.4,281.00,19,100,6 - Snow Showers,1,56,10,0,0,-4,315,18,Moderate,Moderate,0,0.3,3,248,0,20,0,1,0,-1,,
2022/04/08 14:34,Torridon,KM,970596,297000,759600,56.71668,-3.6844258,800,180,35,Beinn Eighe: Coire an Laoigh,-3.3,340.00,20,100,6 - Snow Showers,1,85,15,0,0,-4,30,25,Moderate,Moderate,0,1.1,2,242,0,20,0,1,0,-2.7,Failures at 15cm and 32cm.,
2022/04/08 13:15,Creag Meagaidh,TR,496915,249600,791500,56.990119,-4.4770181,905,120,28,Stob Coire Dubh,-1,330.00,20,70,4 - Light Showers,1,49,17,0,0,-2,340,25,Moderate,Moderate,0,2,1,224,0,20,0,1,0,-2,Minor amount of drifting during day. Point releases in new snow on sun exposed slopes. Fluctuating temperatures in and out of the sun.,
2022/04/08 12:00,Southern Cairngorms,PN,211845,221100,784500,56.917162,-4.9404911,962,130,18,t-Saigairts Col.,-2.6,340.00,10,95,2 - Trace,1,110,13,0,0,-3.4,342,36,Moderate,Moderate,0,1,2,164,0,20,0,1,0,-3.2,Multi layered snow. Easiest shear was around 28cm.,
2022/04/08 11:50,Lochaber,GP,192731,219200,773100,56.814151,-4.963549,1200,225,5,"Aonach Mor, SW aspect",-4,280.00,20,90,4 - Light Showers,0,55,5,0,0,-4.2,340,20,Low,Low,0,2,1,206,0,20,0,1,0,-4,,
2022/04/08 11:30,Glencoe,AP,258506,225800,750600,56.614788,-4.840312,900,50,30,Meall a Bhuiridh,-0.3,340.00,15,50,4 - Light Showers,1,190,15,0,0,-3,340,21,Moderate,Moderate,0,0.1,2,262,0,20,0,1,0,0,Localised hazard,
2022/04/08 11:00,Northern Cairngorms,AT,999022,299900,702200,56.201837,-3.6150353,1030,140,35,"Y Gully, Stag Rocks",-3.2,295.00,10,100,6 - Snow Showers,1,340,22,0,0,-6,290,35,Moderate,Moderate,0,1.4,2,312,0,20,5,1,0,-3,,
2022/04/07 12:25,Torridon,KM,969597,296900,759700,56.717555,-3.686099,850,180,29,Beinn Eighe: Coire an Laoigh,-3.1,30.00,20,60,4 - Light Showers,1,58,3,0,0,-2,45,25,Low,Moderate,0,2,2,238,0,20,5,1,0,0,,
2022/04/07 12:15,Creag Meagaidh,TR,441897,244100,789700,56.972141,-4.5663274,970,120,28,Coire rim of Coire Chriochairein,-3.2,35.00,15,100,4 - Light Showers,0,41,11,0,0,-5,34,25,Low,Moderate,0,0.9,2,220,0,20,0,1,0,-1.7,Very limited new windslab - isolated thin pockets only. Snow blowing around a little but not accumulating in sheltered areas up high. Reactive shears in new cold snow.,
2022/04/07 12:00,Southern Cairngorms,PN,155773,215500,777300,56.850376,-5.0271101,910,195,26,"Meall Odhar, S aspect.",-3.4,35.00,18,95,4 - Light Showers,1,42,15,0,0,-3.7,193,33,Moderate,Moderate,0,0.8,2,160,0,20,0,1,0,-3,New snow mainly been blown from the hill.,
2022/04/07 11:55,Glencoe,PM,251502,225100,750200,56.610939,-4.8514322,1058,170,35,Meall a\' Bhuiridh,-4.5,20.00,15,90,0 - None,1,90,30,0,0,-4,355,20,Moderate,Moderate,0,2.3,1,262,0,20,0,1,0,-5.3,,
2022/04/07 11:40,Lochaber,GP,162718,216200,771800,56.801313,-5.0116834,920,110,20,"Ben Nevis, Coire na Ciste",-1.8,80.00,20,80,4 - Light Showers,0,190,5,0,0,-5,0,30,Low,Low,0,1.4,1,202,0,20,0,1,0,-1.4,,
2022/04/07 11:30,Northern Cairngorms,AT,013031,,,,,950,150,35,Stac an Fharaidh,-3,23.00,30,90,6 - Snow Showers,1,120,22,0,0,-4.5,232,21,Moderate,Moderate,0,1.5,3,306,0,20,5,1,0,-2.8,,
2022/04/06 12:45,Torridon,KM,965594,296500,759400,56.714773,-3.6925101,850,80,30,Beinn Eighe: Coire an Laoigh,1,240.00,25,100,2 - Trace,1,100,3,0,0,0,225,30,Low,Moderate,0,0,1,236,0,20,0,2,0,0,,
2022/04/06 12:30,Lochaber,GM,188743,218800,774300,56.824761,-4.9709447,1010,35,15,Aonach Mor,0,225.00,20,100,6 - Snow Showers,1,45,10,0,0,-1.4,227,31,Low,Low,0,0,3,196,0,20,0,1,0,0,,
2022/04/06 12:10,Southern Cairngorms,PN,245862,224500,786200,56.933715,-4.8858971,1015,45,25,"Summit Gully, Lochnagar.",-0.2,350.00,12,100,2 - Trace,0,50,7,0,1,0.1,237,25,Low,Moderate,0,0,2,158,0,20,0,1,0,0,,
2022/04/06 12:00,Creag Meagaidh,WS,443895,244300,789500,56.970414,-4.5629176,800,100,30,"Coire a Chriochaerin,Liffa gully",1.5,220.00,20,100,4 - Light Showers,1,50,5,0,0,-2,230,7,Moderate,Moderate,0,0.1,2,212,0,20,0,2,0,-0.1,Small localised drift. Dusting of fresh above 800m. ,
2022/04/06 12:00,Creag Meagaidh,WS,443895,244300,789500,56.970414,-4.5629176,800,199,30,"Coire a Chriochaerin, Liffa gully",1.5,220.00,20,100,4 - Light Showers,1,50,5,0,0,-2,220,7,Moderate,Moderate,0,0.1,2,216,0,20,0,1,0,-0.1,,
2022/04/06 11:15,Northern Cairngorms,GP/KG,997043,299700,704300,56.220654,-3.6190524,990,55,20,E side Cas Ridge,0.9,270.00,15,95,4 - Light Showers,1,105,5,0,0,-2,250,40,Low,Considerable -,0,0,1,302,0,20,0,1,0,0,,
2022/04/06 11:10,Glencoe,PM,257506,225700,750600,56.614751,-4.8419393,890,65,32,Meall a' Bhuiridh,0.2,230.00,15,100,4 - Light Showers,1,50,20,0,0,-1,227,31,Moderate,Moderate,0,0.2,2,258,0,20,0,1,0,-0.1,,
2022/04/05 13:24,Southern Cairngorms,PN ,164768,216400,776800,56.846247,-5.0120141,1055,330,18,Glas Maol plateau,-0.5,205.00,8,100,4 - Light Showers,0,48,4,0,1,-2.1,258,25,Low,Low,0,0,3,154,0,20,0,1,0,0,,
2022/04/05 13:15,Torridon,KM,976635,297600,763500,56.751833,-3.6761864,850,110,24,Meall a' Ghiuthais,2.4,270.00,20,100,0 - None,0,65,3,0,1,3,280,15,Low,Moderate,0,0,1,236,0,20,0,2,0,0,,
2022/04/05 12:00,Creag Meagaidh,WS,446857,244600,785700,56.936412,-4.5556518,700,,0,Creag Mhor Ridge ,4.8,270.00,25,100,0 - None,0,0,0,0,1,2,270,32,Low,Moderate,0,,,212,0,20,0,2,0,0,Weather Obs only - no snow at site,
2022/04/05 11:50,Glencoe,PM,256506,225600,750600,56.614714,-4.8435666,870,50,33,Meall a\' Bhuiridh,3.1,270.00,18,100,0 - None,0,40,15,0,1,2.5,270,20,Low,Moderate,0,,1,258,0,20,0,10,0,0,Rain saturated snowpack.,
2022/04/05 11:45,Northern Cairngorms,KG,995048,299500,704800,56.225102,-3.622466,900,325,25,Cas,2.3,245.00,10,100,6 - Snow Showers,0,25,3,0,1,1,278,30,Low,Moderate,0,0,2,296,0,20,0,2,0,0,,
2022/04/05 11:00,Lochaber,GM,186748,218600,774800,56.829169,-4.9745729,800,345,15,Aonach Mor,5.5,270.00,30,100,0 - None,0,30,3,0,1,2.2,,0,Low,Moderate,0,0,0,196,0,20,0,2,0,0,,
2022/04/04 12:45,Southern Cairngorms,PN,209845,220900,784500,56.917085,-4.9437717,995,40,25,"Carn an t-Saggairt Mor, NW aspects.",3,315.00,18,85,0 - None,0,54,22,0,1,4.4,285,41,Low,Moderate,0,0,2,154,0,20,0,1,0,0,,
2022/04/04 12:00,Creag Meagaidh,WS,448896,244800,789600,56.97148,-4.5547633,800,155,30,"Coire a Chriochaerin, Boundary Wall gully",5.6,300.00,20,100,0 - None,0,50,15,0,0,1,330,31,Low,Moderate,0,0,2,212,0,20,0,2,0,0,"Snowpatch only old, moist and stable",
2022/04/04 11:45,Northern Cairngorms,KG,992030,299200,703000,56.208874,-3.6266172,950,320,25,Below Trident Gullies,2.9,50.00,25,100,0 - None,0,35,3,0,0,3,272,56,Low,Considerable -,0,0,1,296,0,20,0,2,0,0,,
2022/04/04 11:36,Torridon,AC,151776,215100,777600,56.852909,-5.0338769,332,319,11,"Meall an t-Sithe, The Fain.",6.7,284.00,13,100,0 - None,0,0,0,0,1,1,315,31,Low,Moderate,0,,,236,0,20,0,2,0,0,No snow at observation site.,
2022/04/04 11:00,Glencoe,GP,153549,215300,754900,56.649345,-5.0142331,860,20,30,Stob Coire nan Lochan,4.4,300.00,30,100,0 - None,0,60,2,0,1,2.5,270,30,Low,Low,0,,1,258,0,20,0,2,0,0,,
2022/04/04 11:00,Lochaber,GM,168724,216800,772400,56.806932,-5.0023032,700,,0,Ben Nevis,4.8,10.00,15,100,0 - None,0,0,0,0,1,1.8,,0,Low,Low,0,,,196,0,20,0,2,0,0,No snow at observation site,
2022/04/03 12:15,Northern Cairngorms,KG,011046,,,,,1090,115,25,Ciste Mhearad,-1.3,300.00,20,60,6 - Snow Showers,1,300,20,0,0,-2,286,19,Moderate,Moderate,0,0.5,3,290,0,20,0,1,0,-1.3,,
2022/04/03 11:45,Southern Cairngorms,SN,166764,216600,776400,56.842738,-5.0084518,1060,195,15,"Glas Maol, Sth Aspect",-0.4,300.00,20,90,0 - None,0,45,9,0,0,0,318,12,Low,Low,0,2.1,2,154,0,20,0,1,0,-2.1,Localised sheltered area.,
2022/04/03 11:45,Creag Meagaidh,TR,444894,244400,789400,56.96955,-4.5612128,760,90,24,Coire Chriochairein,0.6,230.00,10,100,0 - None,0,71,3,0,0,-2,228,15,Low,Low,0,0.8,2,212,0,20,0,2,0,0,Low altitude snowpit. Old snowpack patchy. Well bonded and coarse-grained. No forecasted precip before or during observations.,
2022/04/03 11:30,Glencoe,PM,252503,225200,750300,56.611873,-4.8498728,1070,10,28,Meall a\' Bhuiridh,-1.2,245.00,10,100,2 - Trace,0,60,0,0,0,0,270,13,Low,Low,0,1.1,4,256,0,20,0,1,0,-3.3,,
2022/04/03 10:30,Lochaber,BF,194732,219400,773200,56.815126,-4.9603483,1200,110,10,"Top of Spikes Gully, Aonach Mor",-3.6,280.00,5,100,2 - Trace,0,300,3,0,0,-2,280,15,Low,Low,0,0.5,4,194,0,20,0,1,0,-1.8,Refrozen stable snowpack with a dusting of fresh on top. ,
2022/04/03 10:06,Torridon,AC,242766,224200,776600,56.847471,-4.8841713,565,263,5,"Meall Leacachain, Fannaichs.",1,301.00,12,100,0 - None,0,1,1,0,0,-2,247,32,Low,Low,0,,,236,0,20,0,2,0,0,"1cm of recent snow at observation site. Part decomposed, size 0.5, soft. Overlying bare ground.",
2022/04/02 13:41,Northern Cairngorms,GP,988026,298800,702600,56.205196,-3.6329101,1185,120,10,Cairn Lochan SE aspect,0.2,200.00,5,30,0 - None,0,55,15,0,0,-4,183,12,Moderate,Moderate,0,1.5,1,290,0,20,0,1,0,-1.5,,
2022/04/02 12:50,Creag Meagaidh,TR,388845,238800,784500,56.923661,-4.650098,950,110,27,Beinn a Chaorainn - ridge NE of summit 1049m,-1.7,45.00,5,60,4 - Light Showers,1,29,8,0,0,-2,44,10,Low,Low,0,1.7,2,208,0,20,0,1,0,-1.8,Limited drifting. Cold surface temp in shade.  Thin fresh snow melted quickly where sun-exposed. Small pocket of windslab at shaded pit site.,
2022/04/02 12:10,Lochaber,GM,167723,216700,772300,56.805996,-5.0038668,670,270,10,Ben Nevis,0.6,0.00,0,35,0 - None,0,30,1,0,0,-2.3,280,8,Low,Low,0,0.8,2,194,0,20,0,2,0,-0.8,Stable snowpack,
2022/04/02 11:30,Southern Cairngorms,SN,248862,224800,786200,56.933829,-4.8809738,970,160,15,"Flank of West Ridge, Lochnagar",0,340.00,5,90,2 - Trace,0,34,25,0,0,-1.9,46,9,Moderate,Low,0,0.7,2,152,0,20,0,1,0,-0.7,,
2022/04/02 11:20,Glencoe,PM,219543,221900,754300,56.64652,-4.9063265,940,355,31,Buachaille Etive Mor,-2.1,93.00,7,70,2 - Trace,1,50,1,0,0,-2.3,280,8,Low,Low,0,1.4,4,254,0,20,0,1,0,-3.6,,
2022/04/02 11:03,Torridon,AC,967593,296700,759300,56.713919,-3.689204,737,78,28,"Coire an Laoigh, Beinn Eighe",0.2,88.00,3,20,0 - None,0,52,5,0,0,-2,90,7,Low,Low,0,0.2,3,236,0,20,0,1,0,0,,
2022/04/01 12:46,Creag Meagaidh,AT/KM,429884,242900,788400,56.960069,-4.5852371,810,28,35,"The Window, approach.",-2.5,335.00,5,80,2 - Trace,1,155,0,0,0,-4,360,20,Low,Low,0,1,1,206,0,20,0,1,0,-1.6,,
2022/04/01 12:30,Lochaber,GM,139729,213900,772900,56.810267,-5.0500921,711,,0,Meall an t-Suidhe,0.2,180.00,5,100,0 - None,0,0,0,0,0,-4.1,,0,Low,Low,0,,,194,0,20,0,2,0,0,Weather Observations only. No snow at location ,
2022/04/01 12:11,Southern Cairngorms,PN,026960,,,,,885,135,24,"Corrie an Saobhaidh, SW slopes.",0,250.00,6,80,0 - None,0,47,33,0,0,0,,0,Moderate,Moderate,0,1.6,1,152,0,20,0,1,0,-0.8,,
2022/04/01 12:09,Northern Cairngorms,KG/MD,006038,260000,738000,56.513151,-4.2767537,1170,160,23,S side Cairngorm,-5,250.00,5,10,4 - Light Showers,0,90,25,0,0,-4,93,16,Moderate,Moderate,0,1.4,2,286,0,20,5,1,0,-3,"Failures @ 8cm, 15cm,22cm on a combination of graupel, needless and decomposing.",
2022/04/01 11:45,Glencoe,PM,252504,225200,750400,56.612771,-4.8499404,1080,13,25,Meall a\' Bhuiridh,-2.5,280.00,6,100,2 - Trace,0,60,0,0,0,-3.5,280,14,Low,Low,0,1.2,4,252,0,20,0,1,0,-3.5,"Icy, frozen hard snowpack.",
2022/04/01 10:52,Torridon,AC,140765,214000,776500,56.842602,-5.0510836,600,12,18,"Meall an t-Sithe, Fannaichs.",-2.3,219.00,12,100,8 - Snow,0,10,10,0,0,-5,180,17,Low,Low,0,0.9,0,228,0,20,0,1,0,-0.9,"New snow, mainly lying on bare ground.",
2022/03/31 11:40,Glencoe,AP,256503,225600,750300,56.612022,-4.8433641,1000,45,30,Meall a Bhuiridh,-1.5,5.00,15,60,2 - Trace,0,50,0,0,0,-4,22,15,Low,Low,0,0.4,1,250,0,12,0,1,0,-0.8,Snowpack firm and icy.,
2022/03/31 11:30,Lochaber,BF,194746,219400,774600,56.827686,-4.9613399,1070,20,15,"Nid Ridge, Aonach Mor",-4.6,80.00,5,70,0 - None,0,300,0,0,0,-5.8,140,20,Low,Low,0,1.7,1,194,0,12,0,1,0,-2.9,"Hard, stable refrozen snowpack",
2022/03/31 11:20,Southern Cairngorms,PN,260858,226000,785800,56.930693,-4.8610053,900,130,21,Lochnagar Col,-3.6,265.00,10,85,6 - Snow Showers,1,39,19,0,0,-4.1,90,29,Moderate,Moderate,0,0.7,5,146,0,12,0,1,0,-1,,
2022/03/31 11:15,Northern Cairngorms,HM,006038,260000,738000,56.513151,-4.2767537,1190,160,25,South side Cairngorm,-5.1,360.00,20,100,8 - Snow,1,150,27,0,0,-6,350,30,Considerable -,Considerable -,4400,1.6,2,278,0,12,5,1,0,-3.8,Not to ground,
2022/03/31 11:10,Creag Meagaidh,AT,443894,244300,789400,56.969517,-4.562856,927,100,35,Coire a'Chriochairein,-1.4,50.00,15,80,2 - Trace,1,160,3,0,0,-7,25,22,Low,Low,0,0.5,3,204,0,12,0,1,0,-0.4,,
2022/03/31 10:49,Torridon,AC,223750,222300,775000,56.832393,-4.9141632,532,284,12,"Meall Breac, Fannaichs",-0.7,351.00,9,75,2 - Trace,0,0,0,0,0,-5,23,18,Low,Low,0,,,226,0,12,0,1,0,0,Dusting of new snow at observation site.,
2022/03/30 12:30,Creag Meagaidh,TR,459882,245900,788200,56.959283,-4.5358336,760,90,32,Sron a Ghoire. NE ridge.,-0.9,50.00,10,50,0 - None,0,61,1,0,0,-7,45,20,Low,Low,0,0.5,1,204,0,12,0,1,0,-0.5,No new snow. Re-frozen old snowpack. V. cold summit temps but much milder in the sun. Sun-exposed pit site.,
2022/03/30 12:30,Southern Cairngorms,PN,166763,216600,776300,56.841841,-5.0083798,1050,210,20,"Glas Maol,",-5,27.00,22,80,0 - None,1,38,1,0,0,0,,0,Low,Moderate,0,1.4,2,146,0,12,0,1,0,-1.4,,
2022/03/30 12:00,Northern Cairngorms,HM,011042,,,,,1090,134,27,SE aspect Cairngorm,-4.8,20.00,10,100,4 - Light Showers,1,240,5,0,0,-6,350,30,Low,Moderate,0,1.4,3,274,0,12,5,1,0,-1.5,,
2022/03/30 11:30,Glencoe,AP,258504,225800,750400,56.612994,-4.8401771,900,45,30,Meall a Bhuiridh,-2.1,10.00,10,40,2 - Trace,0,60,0,0,0,-4,45,19,Low,Low,0,0.9,2,248,0,12,0,2,0,-0.1,Snow surface firm and icy. Very light trace of new snow Easterly hills mainly.,
2022/03/30 11:23,Torridon,AC,151721,215100,772100,56.803569,-5.0298868,788,72,21,"Druim Reidh, Toman Coinnich, Fannaichs.",-2.8,2.00,13,40,2 - Trace,0,207,0,0,0,-6,360,21,Low,Low,0,2.2,1,224,0,12,0,1,0,-0.5,,
2022/03/30 11:10,Lochaber,KM,190736,219000,773600,56.818559,-4.9671753,1180,250,25,Aonach Mor,-7,70.00,20,50,0 - None,0,0,0,0,0,-7.3,90,15,Low,Low,0,2.3,0,194,0,12,0,1,0,-5.2,,
2022/03/29 12:25,Creag Meagaidh,TR,430995,243000,799500,57.059715,-4.5905146,860,165,18,Corrieyarack Hill,4.8,40.00,5,95,0 - None,0,38,4,0,0,2,45,10,Low,Low,0,0,1,204,0,12,0,2,0,0,"Low angle snow patch. Moist, well-bonded snow. Patchy cover now.",
2022/03/29 12:20,Southern Cairngorms,PN,245862,224500,786200,56.933715,-4.8858971,1050,50,28,"Lochnagar, West Ridge.",3.4,310.00,12,100,0 - None,0,42,3,0,0,3,234,12,Low,Low,0,0,3,146,0,12,0,1,0,0,,
2022/03/29 12:15,Northern Cairngorms,MD,009041,290000,741000,56.548066,-3.7907985,1195,100,30,Cairngorm East,-0.1,360.00,10,98,2 - Trace,0,60,2,0,0,-1,209,7,Low,Moderate,0,0,2,272,0,12,0,1,0,0,isothermal - soft surface layers. no new snow at midday,
2022/03/29 11:40,Glencoe,AP,252504,225200,750400,56.612771,-4.8499404,1100,15,30,Meall a Bhuiridh,2.9,0.00,0,70,0 - None,0,50,15,0,0,2,45,9,Low,Low,0,0.1,3,248,0,12,0,2,0,-0.1,Becoming cooler and windier later.,
2022/03/29 11:35,Lochaber,KM,165717,216500,771700,56.800534,-5.0067062,850,340,30,Ben Nevis,4,30.00,5,95,0 - None,0,80,5,0,0,1.7,330,10,Low,Low,0,0,1,194,0,12,0,2,0,0,,
2022/03/29 11:00,Torridon,DG,965594,296500,759400,56.714773,-3.6925101,867,90,20,"Coire an Laoigh, Beinn Eighe",3.6,140.00,10,100,0 - None,0,130,10,0,0,3,90,8,Low,Low,0,0,2,224,0,12,0,2,0,0,Not to ground.,
2022/03/28 12:40,Southern Cairngorms,PN,170779,217000,777900,56.856352,-5.0029826,940,45,24,"Garbh Corrie, Cairn o Claise.",7.6,150.00,8,95,0 - None,0,42,3,0,0,7.6,137,9,Low,Low,0,0,3,146,0,12,0,1,0,0,,
2022/03/28 12:00,Creag Meagaidh,WS,439884,243900,788400,56.960407,-4.5688103,650,,0,Coire Ardair,8.2,220.00,2,20,0 - None,0,0,0,0,0,4,30,7,Low,Low,0,,,204,0,12,0,2,0,0,Weather obs only - no snow at site,
2022/03/28 11:30,Lochaber,BF,197714,219700,771400,56.799094,-4.9541692,1220,170,10,Aonach Beag,4.1,140.00,2,10,0 - None,0,105,2,0,0,4.5,242,8,Low,Low,0,0,2,194,0,12,0,2,0,0,"Snowpack firm in shade, softening in sunshine. ",
2022/03/28 11:20,Northern Cairngorms,MD,988038,298800,703800,56.215973,-3.6333683,932,60,35,Fiachail Sneachda,0.5,40.00,5,25,0 - None,0,70,2,0,0,4,360,53,Low,Low,0,0,2,272,0,12,0,1,0,0,isothermic,
2022/03/28 11:15,Glencoe,AP,252504,225200,750400,56.612771,-4.8499404,1100,10,25,Meall a Bhuiridh,3.7,45.00,5,10,0 - None,0,40,10,0,0,4,22,7,Low,Low,0,0.3,2,248,0,12,0,1,0,-0.4,Pit in shaded area.,
2022/03/28 11:00,Torridon,DG,786424,278600,742400,56.557827,-3.9767604,755,47,15,Sgurr A'Chaorachain,7.8,180.00,5,100,0 - None,0,57,5,0,0,6,290,6,Low,Low,0,0,1,224,0,12,0,2,0,0,,
2022/03/27 12:00,Northern Cairngorms,KG,888969,288800,796900,57.049707,-3.8346651,970,300,25,Top of Allt Fhearnagan ,7,300.00,15,5,0 - None,0,40,5,0,0,6,271,18,Low,Low,0,0,2,272,0,12,0,2,0,0,,
2022/03/27 12:00,Creag Meagaidh,WS,448896,244800,789600,56.97148,-4.5547633,800,130,30,"Coire a Chriochaerin, Boundary Wall gully",6,270.00,5,0,0 - None,0,100,10,0,0,6.3,270,11,Low,Low,0,0,2,204,0,12,0,2,0,0,Large grained freeze / thaw crystals soft on surface,
2022/03/27 11:45,Southern Cairngorms,SN,258853,225800,785300,56.926131,-4.8639433,1050,90,15,Cuidhe Crom,10.4,300.00,5,0,0 - None,0,25,10,0,0,10.1,282,13,Low,Low,0,0,2,146,0,12,0,2,0,0,Shallow open slope location. Steep sheltered locations holding deeper snow.,
2022/03/27 11:35,Lochaber,KM,233745,223300,774500,56.828288,-4.8974501,850,40,30,Beinn na Socaich,8.1,270.00,10,0,0 - None,0,95,3,0,0,4,250,10,Low,Low,0,0,1,194,0,12,0,2,0,0,,
2022/03/27 11:30,Torridon,DG,218677,221800,767700,56.766707,-4.9172514,591,204,0,Meall Gorm,13.2,200.00,5,0,0 - None,0,0,0,0,0,5,225,13,Low,Low,0,,,224,0,12,0,2,0,0,No snow at test site.,
2022/03/27 11:30,Glencoe,BF,246567,224600,756700,56.669073,-4.8639874,850,20,10,Beinn a' Chrulaiste,8,240.00,5,0,0 - None,0,95,2,0,0,5,240,10,Low,Low,0,0,1,248,0,12,0,2,0,0,Stable spring snowpack,
2022/03/26 12:30,Creag Meagaidh,WS/CS,462902,246200,790200,56.977332,-4.5321237,922,60,30,"Cairn Liath, Sharks Gultch",6.5,220.00,2,0,0 - None,0,100,10,0,0,4,220,11,Low,Low,0,0,3,204,0,12,0,2,0,0,"Moist and soft in sun affected areas, firmer in shade",
2022/03/26 12:15,Northern Cairngorms,KG,975021,297500,702100,56.200428,-3.6536627,1075,245,25,Above Lairig Ghru,8.8,260.00,15,10,0 - None,0,45,3,0,0,4,223,11,Low,Low,0,0,2,272,0,12,0,2,0,0,,
2022/03/26 12:00,Lochaber,KM,170718,217000,771800,56.801628,-4.9986023,800,320,25,Ben Nevis Coire Leis.,7.3,280.00,10,90,0 - None,0,80,5,0,0,3.5,270,10,Low,Low,0,0,1,194,0,12,0,2,0,0,,
2022/03/26 12:00,Southern Cairngorms,SN,143018,214300,701800,56.172554,-4.9928523,1100,130,20,"Clach Choutsaich, Ben Avon",7.8,230.00,15,0,0 - None,0,35,8,0,0,7.8,234,9,Low,Low,0,0,4,146,0,12,0,2,0,0,Locally shallow - deeper deposits available,
2022/03/26 11:15,Glencoe,BF,156551,215600,755100,56.651257,-5.0094905,800,0,20,Gearr Aonach,7.7,240.00,2,95,0 - None,0,60,1,0,0,5,220,5,Low,Low,0,0,1,248,0,12,0,2,0,0,Stable spring snowpack,
2022/03/26 11:04,Torridon,AC,141765,214100,776500,56.842642,-5.0494467,601,46,35,"Meall an t-Sithe, Fannaichs.",5.1,284.00,7,100,2 - Trace,0,0,0,0,0,3,225,10,Low,Low,0,,,222,0,12,0,2,0,0,No snow at observation site.,
2022/03/25 12:45,Creag Meagaidh,TR,407870,240700,787000,56.946753,-4.6204925,1010,360,24,N facing slopes nr Creag Meagaidh summit.,4,225.00,5,100,0 - None,0,52,7,0,0,4.1,225,10,Low,Low,0,0,2,204,0,12,0,2,0,0,Moist isothermal snowpack. ,
2022/03/25 12:15,Northern Cairngorms,KG,991030,299100,703000,56.208852,-3.6282286,950,30,25,Below Goat Track,4,150.00,5,10,0 - None,0,35,0,0,0,4,269,11,Low,Low,0,0.1,2,272,0,12,0,1,0,0,,
2022/03/25 12:00,Lochaber,KM,187672,218700,767200,56.761025,-4.9675416,880,50,30,An Gearanach,4,230.00,5,100,0 - None,0,95,12,0,0,3.6,215,15,Low,Low,0,0,1,194,0,12,0,2,0,0,,
2022/03/25 12:00,Southern Cairngorms,PN,047792,,,,,1018,75,22,"Beinn Lutheran Mhor, East aspect",4.9,286.00,9,40,0 - None,0,110,11,0,0,7.9,269,11,Low,Low,0,0,1,146,0,12,0,1,0,0,,
2022/03/25 11:30,Glencoe,BF,239496,223900,749600,56.605106,-4.8705486,1050,220,20,Clach Leathad/Creise col,4.6,240.00,5,30,0 - None,0,150,5,0,0,4,220,5,Low,Low,0,0,1,248,0,12,0,2,0,0,Stable Spring Snowpack,
2022/03/25 10:45,Torridon,AC,242766,224200,776600,56.847471,-4.8841713,564,108,21,"Meall Leacachain, Fannaichs.",8.2,169.00,6,40,0 - None,0,0,0,0,0,5,270,12,Low,Low,0,,,222,0,12,0,2,0,0,No snow at observation site.,
2022/03/24 12:10,Southern Cairngorms,AT/PN,248851,224800,785100,56.92396,-4.8802127,1040,165,20,Lochnagar plateau area,6.4,260.00,10,80,0 - None,0,120,6,0,0,6,220,14,Low,Low,0,0,1,146,0,12,0,1,0,0,,
2022/03/24 12:05,Creag Meagaidh,TR,443875,244300,787500,56.952465,-4.561685,910,40,28,"Coire nan Gamhna, Coire Ardair",5.9,225.00,10,90,0 - None,0,42,4,0,0,3.5,225,15,Low,Low,0,0,2,204,0,12,0,2,0,0,"Coarse-grained isothermal snowpack. Debris from recent minor cornice collapse below Bellevue Buttress. Other cornices remain in place, some large.",
2022/03/24 12:00,Glencoe,BF,248503,224800,750300,56.611724,-4.8563814,1080,290,15,Meall a Bhuiridh,4.6,220.00,3,95,0 - None,0,60,2,0,0,4.5,200,5,Low,Low,0,0,2,248,0,12,0,2,0,0,Stable Isothermal Spring Snowpack,
2022/03/24 11:40,Lochaber,KM,193746,219300,774600,56.827647,-4.9629763,1080,330,30,Aonach Mor,5,220.00,10,60,0 - None,0,87,8,0,0,4.1,210,16,Low,Low,0,0,2,194,0,12,0,2,0,0,,
2022/03/24 11:30,Northern Cairngorms,KG,014036,,,,,1010,90,25,Stac an Fharaidh ,8.2,280.00,10,70,0 - None,0,40,5,0,0,5,220,24,Low,Low,0,0,2,272,0,12,0,2,0,0,Glide cracks developing on same aspect and altitude.,
2022/03/24 10:38,Torridon,SA/AB,165606,216500,760600,56.700954,-4.9987541,619,51,28,"Fionn Bheinn, Cregan nan Laogh",7.5,210.00,20,40,0 - None,0,58,8,0,0,4,220,24,Low,Low,0,0,4,222,0,12,0,1,0,0,,
2022/03/23 13:30,Southern Cairngorms,"PN, AT",085989,,,,,1145,140,15,"Burnline, Beinn a'Bhuird",7.1,190.00,7,10,0 - None,0,130,7,0,0,8.9,118,14,Low,Low,0,0,1,146,0,12,0,2,0,0,,
2022/03/23 12:00,Lochaber,GM,194753,219400,775300,56.833966,-4.9618361,830,55,15,Aonach Mor,6.1,180.00,5,10,0 - None,0,60,4,0,0,5.1,187,23,Low,Low,0,0,3,194,0,12,0,2,0,0,Stable snowpack,
2022/03/23 12:00,Creag Meagaidh,WS,684041,268400,704100,56.211225,-4.1233601,750,50,30,A Chailleach,6.5,200.00,15,0,0 - None,0,60,5,0,0,6,200,24,Low,Low,0,0,1,204,0,12,0,2,0,0,Firm spring snowpack,
2022/03/23 11:36,Glencoe,PM,252504,225200,750400,56.612771,-4.8499404,1100,358,30,Meall a' Bhuiridh,4.3,215.00,15,20,0 - None,0,80,10,0,0,5.1,187,23,Low,Low,0,0.1,2,248,0,12,0,1,0,-0.3,,
2022/03/23 11:30,Torridon,SA,965596,296500,759600,56.716569,-3.6925908,965,12,24,Spidean Coire nan Clach. Beinn Eighe,0,210.00,25,20,0 - None,0,44,5,0,0,5,210,28,Low,Low,0,0,3,222,0,12,0,1,0,0,,
2022/03/23 11:00,Northern Cairngorms,BF,014051,,,,,1110,50,15,Snap Coire na Spreidhe,5.5,200.00,5,10,0 - None,0,130,2,0,0,5,176,26,Low,Low,0,0.2,2,272,0,12,0,2,0,-0.2,Generally stable spring snowpack,
2022/03/22 12:35,Creag Meagaidh,KM,486906,248600,790600,56.981715,-4.4929189,750,80,35,Coire nan Gall,12,180.00,20,10,0 - None,0,90,10,0,0,11,200,14,Low,Low,0,0,1,204,0,12,0,2,0,0,,
2022/03/22 12:00,Lochaber,GM,185744,218500,774400,56.825542,-4.9759245,1000,280,20,Aonach Mor,6.1,185.00,15,10,0 - None,0,30,5,0,0,4.1,168,16,Low,Low,0,0,2,194,0,12,0,2,0,0,Stable snowpack,
2022/03/22 11:30,Northern Cairngorms,BF,988992,298800,799200,57.072665,-3.6708353,1260,340,15,Ben MacDui,3,200.00,1,50,0 - None,0,130,1,0,0,3,214,13,Low,Low,0,1.6,1,272,0,12,5,2,0,-1.6,Dense and generally stable snowpack.,
2022/03/22 11:15,Glencoe,PM,257503,225700,750300,56.612059,-4.8417369,980,110,33,Meall a' Bhuiridh,7.6,120.00,14,80,0 - None,0,50,15,0,0,6.4,189,16,Low,Low,0,0.3,2,248,0,12,0,2,0,-0.3,,
2022/03/22 11:09,Torridon,AC,148713,214800,771300,56.796273,-5.034212,928,321,36,"Toman Coinnich, Fannaichs",7.3,160.00,16,20,0 - None,0,37,1,0,0,7,157,22,Low,Low,0,0,3,222,0,12,0,1,0,0,,
2022/03/22 10:41,Southern Cairngorms,PN,220853,222000,785300,56.924686,-4.9262905,1000,50,20,"The Stuic, above NE slopes.",7,190.00,12,10,0 - None,0,75,5,0,0,7.9,204,17,Low,Low,0,0,2,146,0,12,0,1,0,0,,
2022/03/21 12:39,Glencoe,JT,136547,213600,754700,56.646877,-5.041773,775,350,35,Coire nam Beith,1.2,224.00,5,0,0 - None,0,115,10,0,0,2,180,9,Low,Low,0,1.4,4,248,0,12,10,1,0,-2.9,Isolated slab deposit.,
2022/03/21 12:25,Creag Meagaidh,TR,389852,238900,785200,56.929977,-4.6489024,810,40,32,"East Ridge, Beinn a Chaorainn",1.5,150.00,5,0,0 - None,0,51,1,0,0,2,150,10,Low,Low,0,1.2,3,204,0,12,0,1,0,-3,Heavily shaded pit site. Low surface temp. Softer snow in sun-exposed areas.,
2022/03/21 12:25,Southern Cairngorms,PN,991989,299100,798900,57.070037,-3.6657687,1295,90,22,"Ben Macdui, N of Sappers",2.5,200.00,6,10,0 - None,0,85,8,0,0,2.1,154,18,Low,Low,0,1.9,3,146,0,12,0,1,0,-2.2,,
2022/03/21 11:55,Northern Cairngorms,KM,986028,298600,702800,56.20695,-3.636209,1100,340,27,Coire an Lochain,-1.1,170.00,5,0,0 - None,0,0,2,0,0,-1.8,160,20,Moderate,Low,0,1,1,272,0,12,0,1,0,-4,,
2022/03/21 11:45,Lochaber,GM,191736,219100,773600,56.818598,-4.9655394,1212,90,5,Aonach Mor,-0.7,180.00,5,0,0 - None,0,40,1,0,0,1.8,165,14,Low,Low,0,1.9,3,194,0,12,0,1,0,-2.4,Generally stable snowpack,
2022/03/21 10:53,Torridon,AC,244736,224400,773600,56.82063,-4.8788288,658,49,15,"Beinn Liath Bheag, Fannaichs",3.5,160.00,9,0,0 - None,0,33,1,0,0,1,157,8,Low,Low,0,0,2,222,0,12,0,1,0,0,,
2022/03/20 12:15,Creag Meagaidh,TR,427886,242700,788600,56.961796,-4.588647,910,92,32,"Approach to The Window, Coire Ardair.",0.2,155.00,30,0,0 - None,1,38,7,0,0,-1.5,150,35,Low,Low,0,0,1,204,0,12,0,1,0,0,"Only a trace of drifting, summit level only. A few pockets of old windslab above 1000m on NE aspects. Firm snow surface in the shade, moister where the sun had done its work. Some larger cornices over some steeper E aspects.",
2022/03/20 12:00,Lochaber,GM,,,,,,650,,0,Ben Nevis,2.5,185.00,35,0,0 - None,0,0,0,0,0,-2.1,136,35,Moderate,Moderate,0,,,194,0,12,0,2,0,0,Weather Obs only,
2022/03/20 11:45,Northern Cairngorms,KM,001040,210000,740000,56.51356,-5.0896081,1100,350,40,Coire Cas,-1.4,160.00,30,5,0 - None,0,280,4,0,0,-2,145,53,Moderate,Moderate,0,1,2,272,0,12,0,1,0,-3.7,,
2022/03/20 11:30,Southern Cairngorms,SN,134773,213400,777300,56.849537,-5.0614911,925,300,20,The Cairnwell NW aspect,-0.1,160.00,15,50,0 - None,0,20,0,0,0,-0.2,144,37,Low,Low,0,0,1,146,0,12,0,1,0,0,,
2022/03/20 10:50,Glencoe,PM,251505,225100,750500,56.61363,-4.8516353,1090,10,24,Meall a'Bhuiridh,-2.5,135.00,20,40,0 - None,0,60,0,0,0,0.4,156,35,Low,Low,0,2.1,1,248,0,12,0,1,0,-1.1,,
2022/03/20 10:25,Torridon,SA /AB,967593,296700,759300,56.713919,-3.689204,750,50,28,"Coire An Laoigh, Beinn Eighe",1.3,80.00,10,0,0 - None,0,44,2,0,0,4,140,28,Low,Low,0,0,2,222,0,12,0,1,0,0,,
2022/03/19 12:15,Northern Cairngorms,KG,998033,299800,703300,56.211695,-3.6170622,1100,285,42,Windy Col,6,165.00,15,15,0 - None,1,240,10,0,0,5,190,46,Moderate,Moderate,0,1.7,2,272,0,12,0,1,0,-2,,
2022/03/19 12:10,Torridon,SA,787425,278700,742500,56.558751,-3.9751813,721,8,23,Sgurr a Chaorachain,7.8,120.00,20,5,0 - None,0,55,0,0,0,9,130,24,Low,Low,0,0,1,222,0,12,0,1,0,0,,
2022/03/19 12:00,Creag Meagaidh,WS,593776,259300,777600,56.868409,-4.3097948,800,133,30,Gael Charn,6.5,165.00,20,0,0 - None,0,60,2,0,0,7,165,41,Low,Low,0,0,2,204,0,12,0,2,0,0,"Hard underfoot, softening in sunshine",
2022/03/19 11:30,Southern Cairngorms,SN,227853,222700,785300,56.924955,-4.9148059,930,75,25,Below Stuic buttress,6.1,180.00,25,0,0 - None,0,35,5,0,0,7.2,198,27,Low,Low,0,0,1,146,0,12,0,2,0,0,in direct sunlight. much firmer in the shade.,
2022/03/19 10:56,Glencoe,PM,250504,225000,750400,56.612696,-4.8531948,1085,322,32,Meall a' Bhuiridh,4.1,148.00,3,20,0 - None,0,70,3,0,0,5.4,184,40,Low,Low,0,,2,248,0,12,0,1,0,-3.1,,
2022/03/19 09:50,Lochaber,KM,195742,219500,774200,56.824137,-4.9594203,1040,50,30,Aonach Mor: Coire Dubh,5.6,180.00,30,5,0 - None,1,250,10,0,0,3.1,184,40,Moderate,Moderate,0,0.7,3,194,0,12,0,1,0,-0.9,Failures at 18cm and 24cm.,
2022/03/18 12:10,Southern Cairngorms,PN,244859,224400,785900,56.930986,-4.8873301,1145,85,26,"Black Spout, top of R hand.",-0.2,250.00,14,95,0 - None,0,290,2,0,0,0.4,237,31,Low,Low,0,1.4,2,146,0,12,0,1,0,-1.7,,
2022/03/18 11:40,Lochaber,BF/PE,718194,271800,719400,56.349523,-4.0760164,1080,120,30,Aonach Mor/Beag Col,2.3,200.00,5,20,6 - Snow Showers,0,300,10,0,0,-1,219,33,Moderate,Moderate,0,0.4,2,188,0,12,0,2,0,0,Failure at 12cm. Surface softening in locations sheltered from wind and exposed to strong sunshine. ,
2022/03/18 11:35,Creag Meagaidh,KM,447897,244700,789700,56.972343,-4.556468,900,90,30,Coire a' Chriochairein,2.8,200.00,25,40,2 - Trace,0,110,8,0,0,-0.5,229,40,Moderate,Low,0,0.8,2,202,0,12,0,1,0,-1.1,,
2022/03/18 11:30,Northern Cairngorms,KG,997042,299700,704200,56.219756,-3.6190145,1020,20,30,Cas Ridge E side,0,150.00,15,80,0 - None,1,150,20,0,0,-2,239,47,Moderate,Moderate,1011,1.5,2,272,0,12,0,1,0,-2.7,Fail on isolation @ 21cm,
2022/03/18 11:20,Torridon,"AT, BM",986608,298600,760800,56.727806,-3.6587721,900,52,40,"Creag Dhubh, Beinn Eighe",0,194.00,50,50,4 - Light Showers,0,48,15,0,0,0,194,50,Low,Low,0,0.4,2,218,0,12,0,1,0,0,,
2022/03/18 10:50,Glencoe,GP,256504,225600,750400,56.61292,-4.8434316,1000,110,35,"Meall a bhuiridh, near fly paper",1.2,220.00,25,50,4 - Light Showers,0,160,5,0,0,-0.2,219,33,Moderate,Low,0,0.7,2,244,0,12,0,1,0,-1.4,,
2022/03/17 12:00,Southern Cairngorms,PN,135774,213500,777400,56.850475,-5.0599272,910,50,25,The Cairnwell NE aspect.,0.1,269.00,9,100,2 - Trace,0,94,1,0,0,-0.6,269,20,Low,Low,0,0,2,144,0,12,0,1,0,0,,
2022/03/17 12:00,Creag Meagaidh,WS,393850,239300,785000,56.928321,-4.6422104,700,140,30,Beinn a Chaorainn,1.5,220.00,25,100,4 - Light Showers,0,60,5,0,0,-1,220,44,Moderate,Moderate,0,0,4,198,0,12,0,2,0,0,"Firm underfoot, wintry showers strong winds bringing some fresh snow at highest elevations. ",
2022/03/17 12:00,Lochaber,GM,,,,,,650,,0,Ben Nevis,2.3,260.00,35,100,6 - Snow Showers,1,0,0,0,0,-0.6,218,25,Considerable -,Considerable -,4011,,,182,0,12,0,2,0,0,Weather Obs only today,
2022/03/17 11:45,Northern Cairngorms,KG,991036,299100,703600,56.214241,-3.6284571,930,340,20,Sneachda,0,160.00,40,90,6 - Snow Showers,1,25,2,0,1,-3,256,28,Moderate,Moderate,1012,0,3,266,0,12,0,1,0,0,,
2022/03/17 11:30,Glencoe,GP,184541,218400,754100,56.64338,-4.9631831,870,80,30,Buachaille Etive Beag,1,245.00,40,100,6 - Snow Showers,0,250,10,0,1,-0.2,218,25,Moderate,Moderate,0,0.5,1,238,0,12,0,2,0,-0.5,,
2022/03/17 10:55,Torridon,"AT, BM",967593,296700,759300,56.713919,-3.689204,775,88,45,"Coire an Laoigh, Beinn Eighe",1.5,90.00,30,100,2 - Trace,1,240,6,0,0,0,250,45,Low,Low,0,0,3,216,0,12,0,2,0,0,,
2022/03/16 12:44,Creag Meagaidh,WS,450896,245000,789600,56.971547,-4.5514769,800,153,30,"Cairn Liath, SE slopes",1.9,270.00,2,20,2 - Trace,1,0,10,0,0,-3,270,11,Moderate,Moderate,0,0,3,196,0,12,0,2,0,0,"Spring granular snow at site , moist surface layers",
2022/03/16 12:00,Lochaber,GM/BM,194729,219400,772900,56.812435,-4.9601359,1215,90,10,Aonach Mor,-1.9,225.00,10,100,0 - None,0,0,10,0,0,-2.9,217,22,Low,Moderate,1011,1.4,3,182,0,12,0,1,0,-0.6,,
2022/03/16 12:00,Southern Cairngorms,PN,257855,225700,785500,56.927888,-4.8657217,990,330,30,"Lochnagar, just below plateau, corrie side",-0.3,300.00,3,100,4 - Light Showers,0,65,4,0,0,0,216,25,Low,Low,0,0,3,140,0,12,0,1,0,0,,
2022/03/16 11:57,Torridon,"AT, AC",157611,215700,761100,56.705124,-5.0121589,722,99,25,"Creagan nan-Laigh, Fionn Bheinn",3.5,211.00,3,75,0 - None,0,110,15,0,0,-1,200,14,Low,Low,0,0,1,216,0,12,0,1,0,0,,
2022/03/16 11:45,Northern Cairngorms,KG,001041,210000,741000,56.52253,-5.0903388,1090,300,40,Cas Headwall,-1.4,277.00,5,100,4 - Light Showers,0,180,5,0,0,-2,216,30,Low,Moderate,0,0.2,2,262,0,12,0,2,0,-0.2,,
2022/03/16 11:30,Glencoe,PM,251503,225100,750300,56.611836,-4.8514999,1070,317,26,Meall a' Bhuiridh ,-0.5,317.00,3,70,0 - None,1,110,12,0,0,-1,217,22,Moderate,Moderate,0,0.2,3,238,0,12,0,1,0,-0.5,,
2022/03/15 11:35,Southern Cairngorms,PN,209844,220900,784400,56.916188,-4.943701,990,30,28,t-Saggairt Col,-1.2,135.00,12,100,2 - Trace,1,46,1,0,0,-0.8,215,28,Low,Low,0,0,4,138,0,12,0,1,0,0,,
2022/03/15 11:33,Lochaber,GM,167723,216700,772300,56.805996,-5.0038668,680,292,10,Ben Nevis,3.2,130.00,40,100,0 - None,0,30,5,0,0,-2.6,203,35,Low,Moderate,0,0,1,182,0,12,0,2,0,0,Stable snowpack,
2022/03/15 11:32,Northern Cairngorms,KM,996043,299600,704300,56.220633,-3.6206643,980,30,30,Coire Cas,-1.4,210.00,3,100,2 - Trace,1,88,1,0,0,-3,209,42,Low,Low,0,0.8,2,260,0,12,0,1,0,0,,
2022/03/15 11:30,Creag Meagaidh,WS,451893,245100,789300,56.968888,-4.5496496,700,140,30,"Coire a Chriochaerin, Boundary Wall gully",5.5,220.00,25,20,2 - Trace,0,42,8,0,0,-3,220,47,Low,Moderate,0,0,3,194,0,12,0,2,0,0,firm wet spring snowpack at site,
2022/03/15 11:00,Glencoe,AP,252504,225200,750400,56.612771,-4.8499404,1100,15,20,Meall a Bhuiridh,-1.2,200.00,40,60,2 - Trace,1,40,1,0,0,-1.2,200,41,Low,Considerable -,0,0.8,3,236,0,12,0,1,0,-0.7,,
2022/03/15 10:42,Torridon,AC,244770,224400,777000,56.851135,-4.8811726,618,101,15,"Meall Leacachain, Fannaichs.",2.7,219.00,22,100,2 - Trace,0,0,0,0,0,-1,203,39,Low,Low,0,,,214,0,12,2,2,0,0,No snow at observation site. Isolated and very small patches of shallow well bonded old snow observed on a NE aspect below summit at 606m. altitude.,
2022/03/14 12:30,Glencoe,AP,252504,225200,750400,56.612771,-4.8499404,1100,10,25,Meall a Bhuiridh,0.1,190.00,20,100,2 - Trace,0,50,15,0,1,-1,180,21,Low,Low,0,0.1,2,234,0,10,0,1,0,-0.1,,
2022/03/14 12:10,Southern Cairngorms,PN,159771,215900,777100,56.848741,-5.0204164,900,45,26,Corrie Fionn,0.6,190.00,11,100,2 - Trace,0,135,12,0,1,0,175,34,Low,Low,0,0,2,136,0,10,0,1,0,0,,
2022/03/14 12:00,Lochaber,GM,188743,218800,774300,56.824761,-4.9709447,1010,5,20,Aonach Mor,0.1,180.00,10,90,0 - None,0,110,15,0,1,-0.8,180,27,Low,Low,0,0,3,182,0,10,0,2,0,0,,
2022/03/14 11:55,Creag Meagaidh,KM,502924,250200,792400,56.998391,-4.4676881,870,30,25,Stob Coire Dubh: top of Coire a' Bhein,1.5,170.00,20,100,0 - None,0,72,8,0,0,0,180,27,Low,Low,0,0,1,194,0,10,0,2,0,0,,
2022/03/14 11:00,Torridon,BM,967593,296700,759300,56.713919,-3.689204,750,60,35,"Coire an Laoigh, Beinn Eighe",3.8,90.00,10,80,0 - None,0,140,5,0,0,0,160,25,Low,Moderate,0,0,2,214,0,10,0,2,0,0,Well bonded snowpack.,
2022/03/14 11:00,Northern Cairngorms,BF ,992029,299200,702900,56.207975,-3.6265792,1060,20,30,Goat Track,0,230.00,20,100,0 - None,0,300,10,0,0,-1,161,47,Low,Low,0,0.2,2,260,0,10,0,1,0,0,Stable refrozen snowpack.,
2022/03/13 12:30,Glencoe,AP,252504,225200,750400,56.612771,-4.8499404,1075,350,30,Meall a Bhuiridh,0.7,170.00,20,90,6 - Snow Showers,1,60,15,0,0,1,160,40,Moderate,Low,0,0.4,1,228,0,10,0,1,0,-0.5,Sloughing noted on Flypaper,
2022/03/13 12:00,Lochaber,GP,161717,216100,771700,56.800377,-5.0132465,960,310,15,"Ben Nevis, Coire na Ciste",2,160.00,30,90,6 - Snow Showers,0,190,20,0,1,-0.1,173,26,Moderate,Moderate,0,0,2,176,0,10,0,2,0,0,,
2022/03/13 11:45,Northern Cairngorms,KG,995033,299500,703300,56.211631,-3.6218968,940,60,28,Sneachda Morains,0.5,220.00,35,100,6 - Snow Showers,1,200,15,0,1,0,151,59,Moderate,Moderate,0,0,2,254,0,10,0,2,0,0,Sleeting at profile site.,
2022/03/13 11:30,Creag Meagaidh,BF ,429885,242900,788500,56.960966,-4.5852993,900,90,10,Inner Coire,1.3,120.00,15,100,2 - Trace,0,165,1,0,0,0,170,25,Low,Low,0,0,2,192,0,10,0,2,0,0,Stable Spring snowpack ,
2022/03/13 11:30,Southern Cairngorms,SN,247858,224700,785800,56.930202,-4.8823379,900,70,25,Lochnagar  Corrie,0.9,140.00,25,100,6 - Snow Showers,0,50,10,0,0,1.1,162,39,Low,Low,0,0,1,130,0,10,0,2,0,0,Wet snowfall not settling at 900m,
2022/03/13 11:10,Torridon,BM,938581,293800,758100,56.702493,-3.7360599,840,70,25,Liathach,2.7,140.00,30,90,2 - Trace,0,42,1,0,0,0,160,25,Low,Low,0,0,1,212,0,10,0,2,0,0,Well bonded snowpack.,
2022/03/12 14:30,Southern Cairngorms,SN,160771,216000,777100,56.84878,-5.0187792,900,60,20,"Coire Fionn, Glas Maol",1.7,160.00,5,100,4 - Light Showers,0,205,20,0,1,1.8,152,41,Low,Low,0,0,1,126,0,10,0,2,0,0,Wet snow showers - highest summits only after midday.,
2022/03/12 12:00,Creag Meagaidh,WS,460883,246000,788300,56.960214,-4.5342519,700,110,30,Sron a Ghoire,3.8,185.00,15,100,2 - Trace,0,35,5,0,1,-1,200,25,Low,Low,0,0,2,190,0,10,0,2,0,0,stable spring snowpack trace at highest elevations,
2022/03/12 11:30,Northern Cairngorms,KG,002041,220000,741000,56.526465,-4.9280206,1130,300,30,Cas Headwall,0.8,160.00,25,100,6 - Snow Showers,1,85,15,0,1,0,145,61,Moderate,Moderate,2021,,2,248,0,10,0,2,0,0,Wet snow avalanches sz 1 below Jacobs ladder and trident gully area.,
2022/03/12 11:30,Torridon,BM,905607,290500,760700,56.725076,-3.7910353,890,20,45,"Creag Dhubh, Beinn Eighe",1.6,160.00,20,100,0 - None,0,61,2,0,1,0,160,20,Low,Low,0,0,1,212,0,10,0,2,0,0,Well bonded snowpack.,
2022/03/12 11:15,Lochaber,GP,194729,219400,772900,56.812435,-4.9601359,1196,48,25,"Aonach Mor, top of summit gully",-0.7,190.00,20,100,6 - Snow Showers,1,36,10,0,1,-0.8,178,21,Moderate,Moderate,0,0,1,170,0,10,0,2,0,0,,
2022/03/12 10:30,Glencoe,BF,250503,225000,750300,56.611799,-4.8531271,1070,300,15,Meall a Bhuiridh ,1,180.00,2,100,2 - Trace,0,65,1,0,0,1,180,20,Low,Low,0,0,3,226,0,10,0,1,0,0,Stable Spring snowpack with a dusting of fresh snow. ,
2022/03/11 11:45,Northern Cairngorms,JS,995070,299500,707000,56.24486,-3.6233017,655,30,25,An t-Aonach,4.8,150.00,30,100,0 - None,0,80,5,0,1,0,157,60,Moderate,Moderate,0,0,2,248,0,10,0,2,0,0,,
2022/03/11 11:45,Southern Cairngorms,SN/PN/SR,131793,213100,779300,56.867358,-5.067872,890,40,25,Carn Aosda Corrie,1.8,130.00,25,100,0 - None,0,160,10,0,1,2.6,163,44,Low,Low,0,0,1,126,0,10,0,2,0,0,,
2022/03/11 11:35,Creag Meagaidh,KM,443894,244300,789400,56.969517,-4.562856,800,70,29,Coire a' Chriochairein,5,170.00,30,100,0 - None,0,75,8,0,0,1.6,170,40,Low,Low,0,0,1,190,0,10,0,2,0,0,,
2022/03/11 11:25,Lochaber,BM,166718,216600,771800,56.801471,-5.0051429,810,10,25,Ben Nevis,5.2,80.00,35,100,0 - None,0,76,0,0,0,1.6,177,30,Low,Moderate,0,0,1,170,0,10,0,2,0,0,Well bonded snowpack.,
2022/03/11 10:30,Glencoe,GP,254503,225400,750300,56.611948,-4.8466184,1074,18,15,"Meall a Bhuiridh, near summit",2.3,180.00,20,100,0 - None,0,85,2,0,0,1.6,117,30,Low,Low,0,0.5,1,226,0,10,0,2,0,0,,
2022/03/11 10:26,Torridon,AC,223750,222300,775000,56.832393,-4.9141632,532,11,21,"Meall Breac, Fannaichs",6.1,139.00,24,100,2 - Trace,0,0,0,0,0,3,135,38,Low,Low,0,,,210,0,10,0,2,0,0,No snow at observation site.,
2022/03/10 12:30,Creag Meagaidh,WS,608784,260800,778400,56.876042,-4.2856481,800,160,30,Drumochter West,3,165.00,25,100,0 - None,0,35,15,0,1,0,160,35,Low,Low,0,0,1,190,0,10,0,2,0,0,"Wet, isothermal snowpack",
2022/03/10 12:00,Southern Cairngorms,PN,250857,225000,785700,56.929419,-4.8773459,870,0,38,"Lochnagar Corrie, steep slopes above rescue box",3.1,182.00,38,100,0 - None,0,155,8,0,1,3.1,230,6,Moderate,Moderate,0,0,2,126,0,10,0,1,0,0,Weak layer 26-31cm. Cornice collapse or heavy rain may lead to failure.,
2022/03/10 11:50,Lochaber,BM,188742,218800,774200,56.823864,-4.9708736,1050,350,25,Aonach Mor,2.5,180.00,20,100,4 - Light Showers,0,138,7,0,1,1.8,203,19,Moderate,Low,0,0.5,2,166,0,10,0,2,0,0,Weakness at 18cm.,
2022/03/10 11:15,Glencoe,GP/BF,248503,224800,750300,56.611724,-4.8563814,1070,35,15,"Meall a Bhuiridh, near summit",2.2,280.00,25,100,0 - None,0,50,15,0,0,1.8,203,19,Low,Low,0,0,3,226,0,10,0,2,0,0,,
2022/03/10 11:15,Northern Cairngorms,KG,907042,290700,704200,56.217772,-3.764073,1010,30,30,Cas ridge,2.2,170.00,35,100,2 - Trace,0,245,15,0,1,1,176,30,Moderate,Moderate,1021,0.1,3,246,0,10,0,2,0,0,,
2022/03/10 10:29,Torridon,JT,966592,296600,759200,56.712999,-3.6907966,780,90,35,Coire an Laoigh (Beinn Eighe),2.9,157.00,8,100,2 - Trace,0,100,5,0,1,2,157,45,Low,Low,0,0,4,208,0,10,0,2,0,0,Stable snowpack.,
2022/03/09 12:30,Glencoe,AP,253508,225300,750800,56.616397,-4.8485836,900,10,30,Meall a Bhuiridh,1.4,240.00,45,100,8 - Snow,1,40,15,0,1,-2,245,15,Considerable -,Considerable -,4400,0.3,3,218,0,10,0,2,0,-0.3,,
2022/03/09 12:00,Creag Meagaidh,WS,458897,245800,789700,56.972712,-4.5383922,700,114,30,Coire a Chriochaerin,3.9,220.00,25,100,4 - Light Showers,0,35,12,0,0,0,220,33,Moderate,Considerable -,0,0,2,186,0,10,0,2,0,0,Some new slab development above 900m. Moist stable snowpack at site.,
2022/03/09 11:30,Northern Cairngorms,KG,994049,299400,704900,56.225979,-3.6241161,830,340,30,Top of zig zags Cas,2.4,210.00,35,100,6 - Snow Showers,0,130,5,0,0,0,161,51,Considerable -,Considerable -,0,1.7,2,240,0,10,0,2,0,-1.1,,
2022/03/09 11:30,Southern Cairngorms,SN,131793,213100,779300,56.867358,-5.067872,890,40,25,Carn Aosda Corrie,0,180.00,25,100,2 - Trace,1,160,2,0,0,1.1,164,53,Moderate,Moderate,0,0.2,2,124,0,10,0,1,0,0,,
2022/03/09 11:20,Lochaber,BM,166718,216600,771800,56.801471,-5.0051429,820,20,25,Ben Nevis,3.6,140.00,30,100,4 - Light Showers,0,44,2,0,1,0.7,184,41,Moderate,Considerable -,0,0.2,1,162,0,10,0,2,0,0,Wet but well bonded snowpack.,
2022/03/09 10:20,Torridon,SA,779424,277900,742400,56.557645,-3.9881415,670,90,33,Sgurr a Chaorachain,2.3,180.00,20,80,2 - Trace,0,77,2,0,0,2,210,30,Low,Low,0,0,2,206,0,10,0,1,0,0,,
2022/03/08 12:30,Glencoe,AP,251504,225100,750400,56.612733,-4.8515676,1100,20,20,Meall a Bhuiridh,-3.5,180.00,30,60,2 - Trace,1,30,0,0,0,-2,160,52,Low,Considerable -,0,0.7,4,216,0,10,0,1,0,-3.2,Light trace of overnight snow. ,
2022/03/08 11:30,Southern Cairngorms,SN,245864,224500,786400,56.93551,-4.8860358,870,0,25,"Coire na Saobhaidhe, Lochnagar",-2.8,135.00,35,60,0 - None,1,90,12,0,0,-4,135,51,Moderate,Moderate,0,0.7,1,124,0,10,0,1,0,-2.7,,
2022/03/08 11:05,Lochaber,KM,165742,216500,774200,56.822962,-5.0085042,650,315,0,Carn Beag Dearg,-0.4,150.00,40,30,0 - None,0,0,0,0,0,-5,157,40,Low,Considerable +,0,,,162,0,10,0,2,0,0,Weather observations only.,
2022/03/08 11:00,Northern Cairngorms,BF,997043,299700,704300,56.220654,-3.6190524,1030,45,15,Cas Headwall,-3.6,160.00,30,20,0 - None,1,165,1,0,0,-5,160,40,Moderate,Considerable -,0,1.5,3,240,0,10,10,1,0,-4.6,Failure at 17cm ,
2022/03/08 10:45,Creag Meagaidh,JS,438856,243800,785600,56.935246,-4.5687233,770,16,38,Meall Coire Choille-rais ,0.8,135.00,25,45,0 - None,0,80,1,0,0,-5,180,36,Low,Moderate,0,0.9,2,186,0,10,0,1,0,-2,,
2022/03/08 10:30,Torridon,DG / SA,969593,296900,759300,56.713964,-3.6859383,683,10,25,"Coire an Laoigh, Beinn Eighe",1.5,60.00,20,0,0 - None,0,75,5,0,0,-1,160,32,Low,Moderate,0,1.4,4,206,0,10,0,1,0,-3.7,,
2022/03/07 12:30,Glencoe,AP,253508,225300,750800,56.616397,-4.8485836,950,350,35,Meall a Bhuiridh,-2.2,185.00,15,50,0 - None,0,40,1,0,0,-1,155,25,Low,Low,0,1.6,4,216,0,10,0,1,0,-6.3,Widespread firm and very icy snowpack.,
2022/03/07 11:30,Torridon,DG,986600,298600,760000,56.720622,-3.6584557,675,45,30,"Coire Domhain, Beinn Eighe",2.9,230.00,20,100,0 - None,0,70,0,0,0,-2,200,20,Low,Low,0,0.4,1,206,0,10,0,1,0,-0.5,100% very thin cloud cover.,
2022/03/07 11:30,Lochaber,GM,167719,216700,771900,56.802407,-5.0035796,760,350,20,Ben Nevis,-1.1,180.00,20,0,0 - None,0,30,0,0,0,-1.2,190,21,Low,Low,0,0.5,0,162,0,10,0,1,0,-2.1,Stable snowpack,
2022/03/07 11:15,Creag Meagaidh,JS,443894,244300,789400,56.969517,-4.562856,845,20,40,Coire a Chriochairein,3.1,260.00,15,10,0 - None,0,150,1,0,0,-1.2,190,22,Low,Low,0,1.2,3,186,0,10,0,1,0,-1.8,,
2022/03/07 11:00,Northern Cairngorms,BF,008031,280000,731000,56.45583,-3.9487375,1080,45,15,Above Stac an Fharaidh,-0.5,210.00,20,10,0 - None,1,85,10,0,0,-2,212,5,Moderate,Moderate,1011,1.5,3,240,0,10,0,1,0,-1.5,Failure at 26cm ,
2022/03/07 11:00,Southern Cairngorms,SN,132018,213200,701800,56.172124,-5.0105437,1160,220,15,"Leabaidh an Daimh Bhuidhe, Ben Avon",-0.9,180.00,15,20,0 - None,1,35,10,0,0,-1.1,207,18,Low,Moderate,0,0.9,5,124,0,10,0,1,0,-2.8,Failure at isolation at 12cm,
2022/03/06 13:21,Torridon,SA/DG,156606,215600,760600,56.700599,-5.013431,625,60,25,"Fionn Bheinn, Cregan nan Laogh",3.2,245.00,15,0,0 - None,0,57,5,0,0,0,220,24,Low,Low,0,0,2,206,0,10,0,1,0,0,,
2022/03/06 12:25,Creag Meagaidh,TR,390851,239000,785100,56.929114,-4.6471975,800,42,30,"East Ridge, Beinn a Chaorainn",0.3,225.00,5,0,0 - None,0,44,2,0,0,-4,220,10,Low,Low,0,1.4,1,186,0,10,0,1,0,-1.6,Good stability. Softer surface snow where sun-exposed. Large cornices in place which moistened later.,
2022/03/06 11:30,Northern Cairngorms,KG/AG,000022,220000,720000,56.338045,-4.9135619,1030,200,28,Top of Diagonal Gully,-0.1,180.00,5,5,0 - None,0,75,10,0,0,-3,180,10,Moderate,Moderate,0,0.7,4,240,0,10,0,1,0,-2.5,,
2022/03/06 11:30,Southern Cairngorms,SN,990988,299000,798800,57.069117,-3.667377,1297,200,15,Ben Macdui,-2.7,190.00,5,0,0 - None,0,35,8,0,0,-0.5,167,16,Moderate,Low,0,0.7,4,124,0,10,0,1,0,-3.4,,
2022/03/06 11:20,Glencoe,AP,252504,225200,750400,56.612771,-4.8499404,1100,10,25,Meall a Bhuiridh,-2.3,200.00,10,0,0 - None,0,50,0,0,0,-2,180,14,Low,Low,0,2.1,4,216,0,10,0,1,0,-5.6,,
2022/03/06 11:00,Lochaber,GM,192729,219200,772900,56.812357,-4.9634073,1220,152,5,Aonach Mor  ,-4.4,180.00,20,0,0 - None,0,30,2,0,0,-2.9,130,9,Low,Low,0,1.4,1,162,0,10,0,2,0,-3.6,Stable snowpack,
2022/03/05 12:10,Lochaber,GM,155674,215500,767400,56.761564,-5.0199536,710,335,15,Sgùrr a' Mhàim,-1.1,200.00,5,50,0 - None,0,30,0,0,0,-3,338,9,Low,Low,0,0,0,162,0,10,0,2,0,0,Stable snowpack,
2022/03/05 12:00,Torridon,SA,785423,278500,742300,56.556903,-3.9783394,760,189,23,Sgurr a Chaorachain,0.8,340.00,5,100,2 - Trace,0,42,2,0,0,0,310,11,Low,Low,0,0,3,204,0,10,0,1,0,0,,
2022/03/05 12:00,Creag Meagaidh,KM,427885,242700,788500,56.960898,-4.5885847,900,45,30,The Window,-2.1,330.00,15,50,0 - None,0,105,0,0,0,-3,338,9,Low,Low,0,1,1,186,0,10,0,1,0,-1.6,,
2022/03/05 11:30,Southern Cairngorms,SN,244861,224400,786100,56.93278,-4.8874688,1143,140,25,"Cac Carn Beag, Lochnagar",-3.1,15.00,15,100,0 - None,0,120,15,0,0,-0.9,344,30,Moderate,Moderate,0,0.5,3,124,0,10,0,1,0,-2.7,Localised steepening. Some deeper drifts available in more wind sheltered locations. ,
2022/03/05 11:15,Northern Cairngorms,DG/KG,008039,280000,739000,56.52766,-3.9524253,1200,130,25,SE Side of Cairn Gorm,-1.6,200.00,15,100,0 - None,1,70,15,0,0,-4,320,13,Moderate,Moderate,0,0.7,4,240,0,12,0,1,0,-1.9,,
2022/03/05 11:15,Glencoe,PM,258503,225800,750300,56.612097,-4.8401097,930,65,27,Meall a\' Bhuiridh,-3.9,335.00,8,10,0 - None,0,80,1,0,0,-3,338,14,Low,Low,0,1.1,4,216,0,10,0,1,0,-5,,
2022/03/04 12:30,Lochaber,GM,168719,216800,771900,56.802447,-5.0019444,760,30,15,Ben Nevis,0.8,315.00,5,50,0 - None,0,40,0,0,0,-3,223,9,Low,Low,0,0,0,162,0,10,0,2,0,0,Stable snowpack,
2022/03/04 12:10,Northern Cairngorms,DG/KG,011046,,,,,1090,142,16,Ciste Mhearad,-2,315.00,20,100,4 - Light Showers,1,180,5,0,0,-3,310,13,Low,Moderate,0,0.5,4,236,0,10,0,1,0,-0.6,Snow profile not to ground.,
2022/03/04 11:55,Creag Meagaidh,KM,506923,250600,792300,56.997623,-4.4610508,850,10,33,Stob Coire Dubh ,-0.5,310.00,15,80,0 - None,0,240,0,0,0,-3,223,9,Low,Low,0,0.5,1,186,0,10,0,1,0,0,,
2022/03/04 11:45,Southern Cairngorms,SN,156773,215600,777300,56.850416,-5.0254728,910,170,30,"Meall Odhar, South aspects",-0.6,340.00,15,100,2 - Trace,0,58,5,0,0,-1.3,141,15,Low,Low,0,0,4,122,0,10,0,1,0,0,,
2022/03/04 11:36,Torridon,AC,141765,214100,776500,56.842642,-5.0494467,598,32,35,"Meall an t-Sithe, Fannaichs.",0.8,316.00,14,70,0 - None,0,64,2,0,0,-3,315,17,Low,Low,0,0,3,204,0,10,0,2,0,0,,
2022/03/04 11:30,Glencoe,PM,257504,225700,750400,56.612957,-4.8418044,1060,50,25,Meall a\' Bhuiridh,-2.3,315.00,7,100,0 - None,0,60,1,0,0,-3,223,9,Low,Low,0,1.1,1,216,0,10,0,1,0,-1.3,,
2022/03/03 12:25,Creag Meagaidh,TR,451896,245100,789600,56.97158,-4.5498337,790,150,28,Sron Coire a Chriochairein,1.2,225.00,10,100,2 - Trace,1,67,16,0,0,0,225,20,Low,Low,1021,0,2,184,0,10,0,2,0,0,Isothermal snowpack. Some v. thin new windslab but only near summits. Full depth avalanche activity E aspect at 800m Coire nan Gall today. Glide cracks on E aspects elsewhere continue to widen.,
2022/03/03 12:00,Lochaber,BM,189741,218900,774100,56.823006,-4.9691664,1110,30,25,Aonach Mor,0.3,210.00,20,100,2 - Trace,0,120,1,0,1,0.1,163,29,Low,Low,0,0.2,2,160,0,10,0,2,0,-0.2,Well bonded snowpack.,
2022/03/03 11:30,Glencoe,PM,253503,225300,750300,56.611911,-4.8482456,1095,25,22,Meall a'Bhuiridh,-0.2,234.00,20,100,2 - Trace,1,80,2,0,1,-0.1,163,29,Low,Low,0,0.1,3,214,0,10,0,1,0,-0.3,,
2022/03/03 11:06,Torridon,AC,221750,222100,775000,56.832316,-4.9174364,519,109,17,"Meall Breac, Fannaichs.",4.1,180.00,18,100,4 - Light Showers,0,45,8,0,1,1,247,22,Low,Low,0,0,2,200,0,10,0,2,0,0,,
2022/03/03 11:00,Northern Cairngorms,BF,007047,270000,747000,56.596822,-4.1188857,1130,30,15,North side of Cairngorm,0,170.00,20,100,4 - Light Showers,1,75,5,0,0,-1,133,51,Low,Considerable -,0,0.8,2,232,0,10,10,1,0,-0.8,Failure at 17cm. Snowpack warm and sticky. ,
2022/03/03 11:00,Southern Cairngorms,SN,135774,213500,777400,56.850475,-5.0599272,930,300,25,The Cairnwell NW aspect,0.2,180.00,18,100,4 - Light Showers,0,35,7,0,0,-0.1,139,42,Low,Moderate,0,0.1,2,118,0,10,0,1,0,0,New snow amounts were significantly less than expected.,
2022/03/02 12:15,Creag Meagaidh,TR,428884,242800,788400,56.960035,-4.5868798,900,40,33,"Inner Coire, Coire Ardair",-2,155.00,25,45,0 - None,1,48,2,0,0,-3.8,155,35,Low,Low,0,1,2,184,0,10,0,1,0,-1.4,Crusty/firm with some windblown surface snow. Drifting on and off redistributing a little snow on NW to N aspects. Clean shears in older thin windslab but very localised distribution.,
2022/03/02 12:00,Lochaber,KM,167734,216700,773400,56.815864,-5.0046571,900,320,25,Carn Beag Dearg,-2.5,140.00,25,80,0 - None,1,61,2,0,0,-3.5,217,29,Low,Low,0,1.5,2,160,0,10,0,1,0,-1.7,,
2022/03/02 11:20,Northern Cairngorms,"AT, BF",982028,298200,702800,56.206864,-3.6426543,920,45,35,"Twin Burns, Coire an Lochain",-2.6,170.00,30,75,0 - None,1,50,10,0,0,-5,136,20,Low,Low,0,1.9,1,232,0,10,0,1,0,-4.3,,
2022/03/02 11:00,Torridon,CB,970594,297000,759400,56.714884,-3.6843455,675,60,22,"Coire an Laoigh, Beinn Eighe",0,90.00,15,0,0 - None,0,59,0,0,0,0,135,35,Low,Low,0,1.8,2,200,0,10,0,1,0,-2,,
2022/03/02 11:00,Southern Cairngorms,SN,210850,221000,785000,56.92161,-4.9424846,910,300,25,NW aspect of Carn an t-Saggairt Beag,-2,160.00,20,100,0 - None,0,46,0,0,0,-2.9,198,18,Low,Considerable -,0,1.7,2,118,0,10,0,1,0,-2.8,,
2022/03/02 10:15,Glencoe,JS BM,256505,225600,750500,56.613817,-4.8434991,970,345,30,Meall a Bhuiridh,-3,150.00,20,95,0 - None,1,65,3,0,0,-3.5,217,29,Low,Low,0,1.3,4,214,0,10,0,1,0,-4.3,,
2022/03/01 12:30,Lochaber,GM,192743,219200,774300,56.824917,-4.9643998,1145,0,10,Aonach Mor,-4.1,225.00,10,10,0 - None,0,0,0,0,0,-3.1,229,28,Low,Low,0,2.3,1,160,0,10,0,1,0,-2.2,Generally stable snowpack,
2022/03/01 12:30,Creag Meagaidh,WS,523927,252300,792700,57.00176,-4.4333287,550,80,30,Coire a Bhein,3.5,200.00,5,5,0 - None,0,41,0,0,0,-3,200,18,Low,Low,0,0,3,184,0,10,0,2,0,0,Low Level pit site,
2022/03/01 12:15,Torridon,CB,935586,293500,758600,56.706914,-3.7411643,620,20,18,"Coire Dubh Mor, Liathach",3.3,0.00,0,50,0 - None,0,62,8,0,0,-2,225,20,Low,Low,0,0,3,200,0,10,0,1,0,0,,
2022/03/01 12:00,Southern Cairngorms,PN,248862,224800,786200,56.933829,-4.8809738,970,120,30,"West Ridge, Lochnagar.",-1.1,270.00,11,30,0 - None,0,55,3,0,0,-1,262,22,Low,Low,0,0.1,2,118,0,10,0,1,0,-0.4,,
2022/03/01 11:20,Northern Cairngorms,"AT, KG",011042,,,,,1100,120,33,East face of Cairngorm,-0.7,290.00,20,50,0 - None,1,220,10,0,0,-4,95,4,Low,Low,0,0.7,2,232,0,10,0,2,0,-0.5,,
2022/03/01 11:00,Glencoe,AP,255505,225500,750500,56.61378,-4.8451263,1050,60,35,Meall a Bhuiridh,-1.6,240.00,15,15,4 - Light Showers,1,40,2,0,0,-2,250,8,Low,Low,0,0.8,4,210,0,10,0,1,0,-1.1,,
2022/02/28 12:50,Southern Cairngorms,PN,209844,220900,784400,56.916188,-4.943701,995,50,35,t-Saggairt Col,0.8,130.00,8,100,2 - Trace,0,120,14,0,1,1,270,34,Low,Low,0,0.2,4,116,0,8,0,1,0,-0.1,Strong icy layer around 50cm.,
2022/02/28 12:00,Creag Meagaidh,BM,444894,244400,789400,56.96955,-4.5612128,770,70,25,Coire a' Chriochairein,3,270.00,20,100,4 - Light Showers,0,72,15,0,1,-1.4,195,38,Low,Low,0,0,2,180,0,8,0,2,0,0,"Wet, well bonded snowpack.",
2022/02/28 12:00,Glencoe,AP,255505,225500,750500,56.61378,-4.8451263,1050,60,35,Meal a Bhuiridh,-0.3,240.00,20,100,4 - Light Showers,0,50,15,0,0,-2,250,33,Low,Low,0,0.1,3,206,0,8,0,1,0,-0.1,,
2022/02/28 12:00,Lochaber,GM,169722,216900,772200,56.805178,-5.0005244,750,270,20,Ben Nevis,1.7,280.00,20,100,0 - None,0,40,8,0,1,-1.4,195,38,Moderate,Moderate,0,0,2,160,0,8,0,2,0,0,,
2022/02/28 11:45,Northern Cairngorms,"AT, KG",001041,210000,741000,56.52253,-5.0903388,1085,290,36,Choire Chais Headwall,1.8,175.00,10,50,4 - Light Showers,0,78,5,0,0,-1,178,54,Low,Low,0,0.5,2,228,0,8,0,2,0,-0.5,,
2022/02/28 10:20,Torridon,SA,156610,215600,761000,56.704188,-5.013718,650,25,26,"Fionn Bheinn, Cregan nan Laogh",2.6,240.00,28,50,0 - None,0,50,8,0,1,0,220,37,Low,Low,0,0,2,200,0,8,0,2,0,0,,
2022/02/27 12:45,Southern Cairngorms,PN,120770,212000,777000,56.846282,-5.0841891,900,70,26,Carn nan Sac,-0.6,40.00,8,30,0 - None,0,185,3,0,0,-1.3,193,47,Low,Moderate,0,1.7,2,116,0,8,0,1,0,-0.7,,
2022/02/27 12:20,Torridon,SA,785424,278500,742400,56.557801,-3.9783862,767,12,25,Sgurr a Chaorachain,2.7,182.00,25,20,0 - None,0,42,4,0,0,2,140,32,Low,Low,0,0,2,200,0,8,0,1,0,0,,
2022/02/27 12:00,Glencoe,AP,252504,225200,750400,56.612771,-4.8499404,1100,30,25,Meall a a Bhuiridh,-1,190.00,20,100,0 - None,0,40,5,0,0,-2.5,180,43,Low,Moderate,0,0,2,206,0,8,0,1,0,-0.1,,
2022/02/27 12:00,Lochaber,GM,191739,219100,773900,56.82129,-4.9657522,1185,320,10,Aonach Mor,5,180.00,40,100,0 - None,1,60,4,0,0,-2.2,189,37,Low,Moderate,0,1.1,1,160,0,8,0,1,0,-1,,
2022/02/27 11:30,Creag Meagaidh,BM,434862,243400,786200,56.940495,-4.575661,1010,350,23,Meall Coire Choille-rais,-0.6,180.00,20,80,0 - None,0,77,5,0,0,-2.2,189,37,Low,Low,0,0.1,2,180,0,8,0,1,0,0,Well bonded snowpack in this location.,
2022/02/27 10:35,Northern Cairngorms,GP,997042,299700,704200,56.219756,-3.6190145,1020,40,25,Fiacaill Cas NE aspect,-1.2,170.00,30,40,0 - None,0,200,0,0,0,-3,189,65,Low,Low,0,1.6,1,228,0,8,0,1,0,-2.2,,
2022/02/26 13:04,Northern Cairngorms,GP,010066,,,,,830,40,30,Coire Laogh Mor,1.6,140.00,40,90,0 - None,0,300,10,0,1,-1,215,44,Moderate,Moderate,0,2.1,1,228,0,8,0,2,0,0,,
2022/02/26 12:35,Creag Meagaidh,TR,460882,246000,788200,56.959317,-4.5341909,700,90,32,NE ridge of Sron a Ghoire,3,225.00,35,100,2 - Trace,1,71,23,0,0,-0.5,225,50,Moderate,Moderate,0,0.8,1,178,0,8,0,2,0,0,Moist snowpack at this altitude. Occasional light drifting but only over summits.,
2022/02/26 12:00,Southern Cairngorms,SN,131793,213100,779300,56.867358,-5.067872,890,50,30,Carn Aosda Corrie,0.6,200.00,10,100,4 - Light Showers,0,240,9,0,0,0.7,207,37,Moderate,Moderate,0,0.7,2,112,0,8,0,1,0,-0.2,,
2022/02/26 12:00,Lochaber,GM,167723,216700,772300,56.805996,-5.0038668,675,10,20,Ben Nevis,3.5,180.00,30,100,0 - None,0,40,10,0,0,-0.4,202,46,Moderate,Moderate,0,0,1,160,0,8,0,2,0,0,,
2022/02/26 12:00,Glencoe,AP,216544,221600,754400,56.647303,-4.9112813,750,60,30,Coire na Tulaich,1.9,240.00,20,100,4 - Light Showers,0,60,20,0,1,0,200,53,Moderate,Moderate,0,0,3,202,0,8,0,2,0,0,,
2022/02/26 11:05,Torridon,MB/AC,157611,215700,761100,56.705124,-5.0121589,728,92,25,"Creagan nan Laogh, Fionn Beinn",4.2,211.00,15,95,0 - None,0,70,10,0,0,1,202,58,Low,Low,0,0,1,200,0,8,0,1,0,0,,
2022/02/25 12:55,Creag Meagaidh,TR,442894,244200,789400,56.969483,-4.5644991,820,90,30,"Lifa Gully, Coire Chriochairein.",-0.8,225.00,10,45,0 - None,0,86,27,0,0,-3,225,20,Moderate,Moderate,3014,1.3,1,178,0,8,0,2,0,-2.2,Noticeable warmth in the sun on E to S aspects. Colder shade temps. Progressive consolidation during the day. Lingering instability in deeper snow on steep shaded NE aspects. Weak cornices in place.,
2022/02/25 12:30,Southern Cairngorms,SN/PN,169771,216900,777100,56.849136,-5.0040445,990,150,25,"White Brae, NE of Glas Maol summit",-1.9,250.00,15,100,0 - None,0,195,15,0,0,-2,243,42,Considerable -,Moderate,0,1.6,1,112,0,8,0,1,0,-2.2,"Profile site not indicative of least stable locations. Other test areas had softer, less well bonded snow.",
2022/02/25 11:55,Lochaber,KM,171740,217100,774000,56.821404,-4.9985443,850,50,30,Carn Beag Dearg,-0.2,250.00,5,10,0 - None,0,105,10,0,0,-3.5,243,24,Considerable -,Considerable -,0,0.8,2,160,0,8,0,1,0,0,Weaknesses within snowpack. Graupel also present in upper layers.,
2022/02/25 11:52,Torridon,MB/AC,988607,298800,760700,56.726951,-3.6554656,775,94,25,"Creag Dhubh, Beinn Eighe",0.3,194.00,20,100,0 - None,0,109,15,0,0,-3,247,23,Moderate,Low,0,0.8,3,200,0,8,5,1,0,-1.6,Fail at 12cm on Graupel and rounding crystals. ,
2022/02/25 11:30,Northern Cairngorms,BF,995018,299500,701800,56.19816,-3.6213281,1080,100,15,Above Hell's Lum,-2.2,250.00,15,5,0 - None,0,215,10,0,0,-4,275,16,Considerable -,Moderate,2011,0.4,1,228,0,8,0,1,0,-3.1,Failure at 24cm ,
2022/02/25 10:50,Glencoe,BM,257504,225700,750400,56.612957,-4.8418044,930,80,35,Meall a' Bhuiridh,-0.8,320.00,5,10,4 - Light Showers,0,190,15,0,0,-3.5,243,24,Considerable -,Considerable -,0,1.5,2,198,0,8,5,1,0,-3.7,Multiple weaknesses in the snowpack.,
2022/02/24 12:10,Southern Cairngorms,PN,131792,213100,779200,56.866461,-5.0677985,880,80,30,Carn Aosda Corrie,-4,325.00,9,100,6 - Snow Showers,1,195,37,0,0,-5,243,42,Considerable -,Considerable -,4400,1.8,2,106,0,8,0,1,0,-5.2,,
2022/02/24 12:00,Northern Cairngorms,BF,997044,299700,704400,56.221552,-3.6190903,980,40,15,Cas ridge E side ,-3.5,270.00,25,100,6 - Snow Showers,1,195,10,0,0,-5,242,29,Considerable -,Considerable -,4400,1.5,2,222,0,8,0,1,0,-3,Failures at 10cm and 23cm ,
2022/02/24 11:45,Creag Meagaidh,KM,443893,244300,789300,56.968619,-4.5627943,850,70,30,Coire a' Chriochairein,-3.9,260.00,25,100,8 - Snow,1,180,30,0,0,-5,230,40,Considerable -,Considerable -,4400,1,1,170,0,8,0,1,0,-4.3,Several weaknesses in snowpack.,
2022/02/24 11:10,Glencoe,RB/BM,187544,218700,754400,56.646188,-4.958509,750,135,28,Buachaille Etive Beag,-2.4,250.00,25,100,6 - Snow Showers,1,80,20,0,0,-5.5,223,40,Considerable -,Considerable -,0,1.3,2,192,0,8,5,1,0,-3.4,Multiple weaknesses within the new snow.,
2022/02/24 10:40,Lochaber,GP,188743,218800,774300,56.824761,-4.9709447,990,360,25,"Aonach Mor, Goose Gully",-4.5,270.00,30,100,6 - Snow Showers,1,260,15,0,0,-5.5,223,40,Considerable -,Considerable -,4400,1.8,1,154,0,8,0,1,0,-5,Multiple weaknesses within snowpack,
2022/02/24 10:25,Torridon,SA/MB,969592,296900,759200,56.713066,-3.6858981,682,1,25,Stuc Coire an Laoigh,-2.2,270.00,30,100,8 - Snow,1,123,2,0,0,-6,247,38,Moderate,Considerable -,0,1.4,3,192,0,8,0,1,0,-0.8,,
2022/02/23 12:15,Southern Cairngorms,PN,157773,215700,777300,56.850456,-5.0238356,900,40,30,Corrie Fionn,0,205.00,18,100,8 - Snow,1,110,7,0,1,0,243,46,Considerable +,Considerable -,8800,0.3,2,98,0,8,0,1,0,0,,
2022/02/23 12:00,Lochaber,GM,,,,,,1190,,0,Aonach Mor Met readings,-1.9,225.00,45,100,6 - Snow Showers,1,0,0,0,1,-1.5,228,43,Considerable -,Considerable -,4410,,,148,0,8,0,2,0,0,Weather Obs only,
2022/02/23 11:35,Torridon,SA,780424,278000,742400,56.557671,-3.9865156,682,98,15,Sgurr a Chaorachain,0,200.00,30,100,6 - Snow Showers,1,63,9,0,0,0,240,58,Moderate,Considerable -,0,0,2,186,0,8,0,1,0,0,,
2022/02/23 11:00,Northern Cairngorms,KG,995069,299500,706900,56.243962,-3.6232636,675,30,25,An t-Aonach,1.8,220.00,40,100,8 - Snow,0,130,20,0,0,0,246,32,Considerable +,Considerable +,8800,0,3,214,0,8,2,10,0,0,Heavy sleet at profile site.,
2022/02/23 10:45,Creag Meagaidh,MB/ KM,449868,244900,786800,56.946385,-4.5514013,800,45,27,NE flank of Creag Mhor,0,290.00,25,100,4 - Light Showers,1,56,13,0,0,-1.4,228,43,Considerable -,Considerable -,4400,0.2,2,166,0,8,0,2,0,0,,
2022/02/23 10:35,Glencoe,PM / RB,269520,226900,752000,56.627758,-4.8233498,480,355,30,Meal a Bhuiridh,2.7,270.00,40,100,0 - None,1,60,40,0,0,-1.5,228,43,Moderate,Considerable -,0,0.1,1,192,0,8,0,2,0,-0.1,Wet and isothermal snowpack.,
2022/02/22 12:10,Southern Cairngorms,PN,168782,216800,778200,56.858965,-5.0064737,900,80,28,"Garbh Corrie, Cairn o' Claise.",-1.4,240.00,18,60,4 - Light Showers,0,110,10,0,0,-1.4,262,36,Moderate,Considerable +,0,1.1,2,94,0,8,0,1,0,-0.4,,
2022/02/22 11:45,Lochaber,RB/GM,168719,216800,771900,56.802447,-5.0019444,850,30,38,Ben Nevis.,-1,20.00,25,100,6 - Snow Showers,1,60,5,0,0,-3.3,234,29,Moderate,Considerable -,0,0.5,2,142,0,8,0,2,0,-0.2,,
2022/02/22 11:09,Torridon,AC,249736,224900,773600,56.820818,-4.8706479,608,49,38,"Beinn Liath Bheag, Fannaichs.",1.2,285.00,17,95,6 - Snow Showers,0,215,15,0,0,-3,270,43,Low,Moderate,0,0.2,2,180,0,8,5,1,0,-0.1,,
2022/02/22 10:50,Glencoe,PM,219543,221900,754300,56.64652,-4.9063265,780,350,32,Buachaille Etive Mor,-1.3,185.00,20,100,6 - Snow Showers,1,70,25,0,0,-3.3,234,29,Moderate,Considerable -,0,0.4,1,186,0,8,0,1,0,-1.3,,
2022/02/22 10:30,Creag Meagaidh,MB,453881,245300,788100,56.958186,-4.5456285,840,112,40,Bealach a Ghoire,0,270.00,10,40,2 - Trace,1,190,19,0,0,-3.9,270,40,Moderate,Considerable -,0,0.6,2,164,0,8,0,1,0,-0.1,,
2022/02/22 10:00,Northern Cairngorms,KG,997043,299700,704300,56.220654,-3.6190524,1000,75,27,E side of Cas ridge,-2.2,290.00,25,100,6 - Snow Showers,1,180,30,0,0,-4,265,22,Low,Considerable +,0,2,2,208,0,8,5,2,0,0,,
2022/02/21 12:20,Lochaber,RB/GM,193740,219300,774000,56.822265,-4.962551,1160,90,38,Aonach Mor,-2.3,290.00,10,80,0 - None,0,400,15,0,0,-2,320,10,Low,Moderate,0,0.6,3,142,0,8,0,1,0,-1.2,,
2022/02/21 12:00,Creag Meagaidh,WS,606785,260600,778500,56.87688,-4.2889816,830,129,30,Gael-charn,0.5,290.00,20,80,4 - Light Showers,0,67,10,0,0,-3,290,38,Moderate,Moderate,0,0.3,2,160,0,8,0,1,0,-0.1,"Humid slab, reactive at 29",
2022/02/21 11:45,Northern Cairngorms,KG,006047,260000,747000,56.593942,-4.2816122,1115,120,25,Ptarmigan bowl.,-2.1,300.00,30,100,6 - Snow Showers,1,115,20,0,0,-3,235,11,Considerable -,Moderate,1019,0.6,2,202,0,8,5,1,0,-1.5,Multiple snowpack weaknesses observed within recent windslab accumulations on a NE aspect at 950m.,
2022/02/21 11:19,Torridon,AC,151721,215100,772100,56.803569,-5.0298868,803,138,32,"Druim Reidh, Toman Coinnich, Fannaichs.",-0.1,342.00,21,100,6 - Snow Showers,0,66,15,0,0,-2,338,26,Moderate,Moderate,0,0,3,174,0,8,5,1,0,0,,
2022/02/21 11:10,Southern Cairngorms,HM,127780,212700,778000,56.855535,-5.0734662,810,170,38,Coire Direach,0,350.00,30,100,4 - Light Showers,1,120,40,0,0,-1.3,283,46,Moderate,Moderate,0,0.3,2,90,0,8,0,1,0,-0.1,,
2022/02/21 11:10,Glencoe,PM,255504,225500,750400,56.612882,-4.8450588,1040,60,28,Meall a\' Bhuiridh,-0.2,330.00,25,100,4 - Light Showers,1,70,20,0,0,-1.7,256,32,Moderate,Moderate,4400,0.2,3,182,0,8,0,1,0,-0.4,,
2022/02/20 12:00,Southern Cairngorms,HM/SN,139799,213900,779900,56.873062,-5.0552079,785,30,30,Cruinn Coire,1.5,270.00,10,40,4 - Light Showers,0,85,20,0,1,-0.2,233,35,Moderate,Moderate,3021,1,2,86,0,8,0,1,0,0,Fails at 12cm and 80cm,
2022/02/20 12:00,Lochaber,GM,168723,216800,772300,56.806035,-5.0022315,700,270,15,Ben Nevis,2.3,270.00,30,100,2 - Trace,1,30,15,0,1,-1.4,232,30,Low,Moderate,0,0,1,140,0,8,0,2,0,0,,
2022/02/20 11:30,Creag Meagaidh,RB,462900,246200,790000,56.975537,-4.5320018,830,110,40,Can Liath,0.9,240.00,30,80,2 - Trace,1,100,15,0,1,-2,250,48,Moderate,Considerable +,0,0.5,1,158,0,8,0,2,0,-0.1,,
2022/02/20 11:05,Torridon,CB,969594,296900,759400,56.714862,-3.6859784,600,140,15,"Coire an Laoigh, Beinn Eighe",2.9,20.00,15,100,6 - Snow Showers,0,58,17,0,0,-2,270,50,Moderate,Moderate,1021,0,2,168,0,8,5,2,0,0,,
2022/02/20 11:00,Northern Cairngorms,KG,997043,299700,704300,56.220654,-3.6190524,990,70,30,E side of Cas ridge,1.1,240.00,30,80,6 - Snow Showers,0,230,15,0,0,0,199,20,Moderate,Considerable -,0,2.5,1,196,0,8,0,2,0,-0.5,,
2022/02/20 10:30,Glencoe,AT ,218548,221800,754800,56.650968,-4.9083006,530,350,35,Coire na Tulaich,4.2,180.00,15,100,4 - Light Showers,0,80,20,0,1,-1.4,232,30,Moderate,Considerable -,0,0.3,1,178,0,8,0,2,0,-0.1,,
2022/02/19 12:10,Southern Cairngorms,PN,171769,217100,776900,56.847421,-5.0006263,970,100,28,East side Glas Maol.,-5,0.00,8,30,0 - None,0,110,21,0,0,-3.9,193,31,Moderate,Considerable +,4011,1.9,3,86,0,8,0,1,0,-4.4,Very strong overnight winds.,
2022/02/19 11:50,Torridon,CB,787425,278700,742500,56.558751,-3.9751813,750,110,21,Sgurr a' Chaorachain,-0.2,170.00,5,20,0 - None,0,63,13,0,0,-5,180,7,Moderate,Moderate,0,0.6,3,168,0,8,5,1,0,-2.2,Weaknesses in snowpack observed on Easterly aspect at 750 metres. This will be of significance with more snow forecast during Saturday night accompanied by the freezing level rising well above the summits. ,
2022/02/19 11:45,Northern Cairngorms,BF,003022,230000,722000,56.359689,-4.7532966,1050,70,10,Above Stag Rocks,-4.2,300.00,5,65,0 - None,0,65,5,0,0,-5,240,15,Moderate,Considerable -,1011,1.2,2,196,0,8,0,2,0,-4.2,Failures at 40cm ,
2022/02/19 11:45,Creag Meagaidh,RB / WS,454882,245400,788200,56.959116,-4.544047,820,40,28,Sron a Choire,-3.8,270.00,5,0,0 - None,0,300,30,0,0,-5,290,15,Considerable -,Considerable -,1014,4,1,158,0,8,0,1,0,-10,Very steep temperature gradient within the top 30cm.,
2022/02/19 11:15,Lochaber,BM,194719,219400,771900,56.803463,-4.9594282,1080,110,25,Aonach Mor/Aonach Beag col,-3.7,270.00,5,5,6 - Snow Showers,0,58,15,0,0,-4.7,239,15,Considerable +,High,3014,2.3,3,134,0,8,10,1,0,-6,Multiple weaknesses in the snowpack.,
2022/02/19 10:50,Glencoe,AT,255504,225500,750400,56.612882,-4.8450588,1033,55,26,Meall A'Bhuiridh,-4,280.00,8,0,0 - None,0,80,10,0,0,-4.7,239,15,Considerable -,Considerable +,0,2.5,1,178,0,8,0,1,0,-3.8,,
2022/02/18 12:30,Southern Cairngorms,SN/PN,130786,213000,778600,56.861038,-5.0689951,790,180,20,Carn Aosda Hut area,-2.3,30.00,5,100,10 - Heavy Snow,1,60,50,0,0,-3.9,193,31,Considerable -,Considerable +,4400,1.1,2,76,0,8,5,1,0,-2.5,"Persistent snowfall, heaviest during morning - very deep drifts forming
Multi layered weakly bonded snowpack.",
2022/02/18 12:05,Creag Meagaidh,TR,460882,246000,788200,56.959317,-4.5341909,690,92,24,NE ridge of Sron a Ghoire,-2.4,300.00,25,100,6 - Snow Showers,1,69,60,0,0,-4.3,300,35,Considerable +,Considerable -,8800,0.9,2,152,0,8,0,1,0,-3,Shallow angle at pit site at low altitude. Heavy drifting and rapid build up of weak windslab. Easy and/or spontaneous releases in new slab during field tests.,
2022/02/18 11:40,Torridon,CB,940596,294000,759600,56.716008,-3.7334147,550,190,22,"Coinneach Mhor, (Beinn Eighe)",-1.5,5.00,5,100,0 - None,0,52,8,0,0,-6,5,22,Moderate,Considerable -,0,1,2,168,0,8,5,1,0,-1.5,,
2022/02/18 11:30,Northern Cairngorms,RB / BF,995043,299500,704300,56.220612,-3.6222762,940,250,25,Fiacaill a Choire Cas,-4.2,45.00,40,100,8 - Snow,1,60,30,0,0,-5,10,40,Considerable +,Considerable -,888,0.9,4,188,0,8,0,1,0,-4.1,Failure at 46cm.,
2022/02/18 11:30,Glencoe,HM,256508,225600,750800,56.616509,-4.8437016,850,50,25,Meall a Bhuiridh North East Face,-3.7,330.00,20,100,8 - Snow,1,120,40,0,0,-5.8,181,20,High,High,9900,1.7,3,170,0,8,5,1,0,-3.7,Multiple weak layers in windslab,
2022/02/18 11:10,Lochaber,BM,187745,218700,774500,56.826517,-4.9727231,900,20,20,Aonach Mor,-4.5,20.00,20,100,6 - Snow Showers,1,180,20,0,0,-5.8,181,20,Considerable +,Considerable +,4400,1.2,3,128,0,8,5,1,0,-2.3,Multiple weaknesses in the snowpack,
2022/02/17 12:45,Creag Meagaidh,TR,431882,243100,788200,56.958342,-4.5818276,740,90,32,"Base of Staghorn Gully, Coire Ardair.",-2,270.00,35,90,8 - Snow,1,68,40,0,0,-5.8,274,45,Considerable -,Considerable -,4400,1,2,144,0,8,0,1,0,-3.1,Heavy drifting all day both in and out of showers. Weak windslab built rapidly. New weak cornices evident.,
2022/02/17 12:30,Glencoe,AP,209575,220900,757500,56.674848,-4.9248366,700,90,30,Stob Mhic Mhartuin,-1.5,270.00,35,90,8 - Snow,1,70,35,0,0,-5,270,39,Considerable -,Moderate,4400,0.7,4,162,0,8,0,1,0,-1.9,Occasional sunny spells.,
2022/02/17 12:00,Northern Cairngorms,BF,977032,297700,703200,56.210349,-3.6508651,1110,60,15,Fiacaill of Coire an Lochan,-3.6,240.00,20,70,6 - Snow Showers,1,180,5,0,0,-5,240,40,Considerable -,Considerable -,0,0.8,1,182,0,8,0,1,0,-3,Failure at 36cm ,
2022/02/17 12:00,Southern Cairngorms,SN,158774,215800,777400,56.851392,-5.0222707,890,50,25,"Coire Fionn, Glas Maol",-3.1,270.00,15,50,4 - Light Showers,1,99,35,0,0,-3.5,272,48,Considerable -,Considerable -,0,1,2,72,0,8,0,1,0,-3.3,Multi-layered snow pack with easy releases. Snow showers heavier during the afternoon.,
2022/02/17 12:00,Lochaber,GM,169722,216900,772200,56.805178,-5.0005244,750,270,20,Ben Nevis,-1.9,290.00,25,100,6 - Snow Showers,1,30,20,0,0,-5.9,233,32,Considerable -,Considerable -,0,1,2,122,0,8,0,1,0,-1.4,,
2022/02/17 09:45,Torridon,SA,973590,297300,759000,56.711358,-3.6792867,500,89,30,Stuc Coire an Laoigh,0,270.00,35,80,10 - Heavy Snow,1,85,28,0,0,-5,270,48,Considerable -,Considerable -,0,0,2,158,0,8,0,1,0,0,,
2022/02/16 13:05,Creag Meagaidh,TR,448897,244800,789700,56.972377,-4.5548248,900,135,22,"Wall Gully, Coire Chriochairein",-0.1,135.00,5,100,4 - Light Showers,0,71,43,0,0,-1,125,10,Moderate,Considerable -,0,0.9,2,140,0,8,0,1,0,0,Snow falling out of the sky at 900m: very low wind speeds during the morning and midday. Older windslab bonding rapidly after early minor temp rise. Newest windslab humid and well bonded.,
2022/02/16 12:40,Glencoe,AP,216543,221600,754300,56.646405,-4.9112121,850,60,30,Coire na Tulaich,0.6,320.00,25,100,6 - Snow Showers,1,60,20,0,0,0,225,33,Moderate,Considerable -,0,0,2,156,0,8,0,2,0,0,Cornice debris(minor) and light sloughing noted. Coire na Tulaich.,
2022/02/16 12:00,Northern Cairngorms,BF,012046,,,,,1100,50,15,Ciste Mhearad,-0.2,280.00,5,100,2 - Trace,0,300,15,0,0,-1,129,13,Low,Considerable -,0,1.9,3,180,0,8,0,2,0,0,,
2022/02/16 12:00,Southern Cairngorms,SN,161769,216100,776900,56.847026,-5.0169976,990,20,30,"Coire Fionn, Glas Maol",0.8,270.00,25,100,2 - Trace,0,78,32,0,0,0.2,228,29,Moderate,Considerable -,0,0.7,2,70,0,8,0,2,0,-0.2,"Multi-layered snowpack containing instabilities
Snowfall above 800m during the afternoon.",
2022/02/16 12:00,Lochaber,GM,,,,,,1125,,0,Aonach Mor  ,0,200.00,22,100,0 - None,0,0,0,0,1,-0.4,214,26,Moderate,Moderate,2021,,,122,0,8,0,2,0,0,Weather Observations only,
2022/02/16 11:10,Torridon,AT  ,991607,299100,760700,56.727016,-3.6505652,660,36,34,Creag Dhubh,0,240.00,15,100,2 - Trace,1,50,20,0,0,-2,157,17,Moderate,Considerable -,0,1.1,2,156,0,8,5,1,0,-1.1,,
2022/02/15 12:35,Lochaber,GM,168717,216800,771700,56.800653,-5.0018009,860,163,20,Ben Nevis,-1.6,315.00,40,100,4 - Light Showers,1,90,30,0,0,-3.7,227,18,Moderate,Moderate,0,0.4,2,118,0,8,0,1,0,-1.4,,
2022/02/15 12:30,Southern Cairngorms,PN/MB,164773,216400,777300,56.850733,-5.0123748,933,50,35,Glas Choire ,-2.6,245.00,8,30,0 - None,1,44,16,0,0,-2.7,259,28,Moderate,Considerable -,0,1.5,4,70,0,8,0,1,0,-2.7,,
2022/02/15 12:15,Northern Cairngorms,KG/MD,997042,299700,704200,56.219756,-3.6190145,1010,70,25,Cas ridge E side,-2.5,270.00,25,70,4 - Light Showers,1,105,10,0,0,-4,191,15,Low,Considerable -,0,1.9,2,176,0,8,10,1,0,-1.7,,
2022/02/15 12:05,Creag Meagaidh,KM,454880,245400,788000,56.957322,-4.5439246,840,90,35,Bealach a' Ghoire,-1.9,300.00,25,100,6 - Snow Showers,1,90,15,0,0,-3.2,210,18,Moderate,Moderate,0,0.9,2,134,0,8,0,1,0,-1.5,,
2022/02/15 12:00,Glencoe,AP,215545,221500,754500,56.648162,-4.9129792,800,40,30,Buachaille Etive  Mor,-0.8,320.00,25,70,6 - Snow Showers,1,80,30,0,0,-4,270,35,Moderate,Considerable -,0,0.3,2,150,0,8,0,1,0,-1.1,,
2022/02/15 11:10,Torridon,AT / AC,967593,296700,759300,56.713919,-3.689204,730,108,33,"Coire an Laoigh, Beinn Eighe",0.4,270.00,5,80,4 - Light Showers,1,105,10,0,0,-3,270,38,Moderate,Moderate,0,0.1,1,152,0,8,0,1,0,0,Unrealistic windspeed and direction recorded at site location due to wind sheltered area. ,
2022/02/14 13:00,Lochaber,GM,191739,219100,773900,56.82129,-4.9657522,1190,70,20,Aonach Mor,-1.3,270.00,15,100,0 - None,0,45,5,0,0,-1.6,87,11,Low,Moderate,0,0.2,3,118,0,6,0,1,0,-0.4,Stable snowpack,
2022/02/14 12:30,Glencoe,AP,256503,225600,750300,56.612022,-4.8433641,1000,150,25,Meall a Bhuiridh,-1.7,340.00,20,50,4 - Light Showers,1,50,20,0,0,-2,270,19,Low,Moderate,0,0.5,1,146,0,6,0,1,0,-0.5,Sunshine and light snow showers in the morning.,
2022/02/14 11:55,Creag Meagaidh,KM,502924,250200,792400,56.998391,-4.4676881,870,40,25,Stob Coire Dubh,0,320.00,25,100,2 - Trace,1,95,15,0,0,-1,330,15,Low,Moderate,0,0.7,3,132,0,6,0,2,0,0,,
2022/02/14 11:45,Northern Cairngorms,MB/KG,995034,299500,703400,56.212529,-3.6219347,935,150,28,Sneachda Morains,0,300.00,15,100,6 - Snow Showers,0,70,15,0,0,-2,243,9,Low,Moderate,0,0.1,2,170,0,6,0,1,0,0,Widespread friable rain crust.,
2022/02/14 11:30,Southern Cairngorms,PN,155773,215500,777300,56.850376,-5.0271101,910,180,28,Meall Odhar South slopes.,-0.4,40.00,8,100,2 - Trace,0,41,33,0,0,-0.4,167,29,Low,Moderate,0,0.3,3,68,0,6,0,1,0,-0.7,New isolated pockets on S aspects. ,
2022/02/14 11:10,Torridon,AT/AC,248736,224800,773600,56.820781,-4.8722841,600,35,32,Beinn Liath Bheag,1.9,300.00,10,100,4 - Light Showers,0,60,10,0,1,1,0,21,Low,Moderate,0,0,0,148,0,6,0,1,0,0,,
2022/02/13 12:40,Southern Cairngorms,PN,103987,210300,798700,57.040239,-5.1282889,900,95,25,"Beinn a Bhuird, just out Dubh Corrie",0.7,320.00,1,100,2 - Trace,0,32,14,0,0,-0.2,229,34,Low,Low,0,0,2,66,0,6,0,1,0,0,Very little visibility above 900 metres.,
2022/02/13 12:35,Creag Meagaidh,TR,442894,244200,789400,56.969483,-4.5644991,850,90,32,"Lifa Gully, Coire Chriochairein.",0.7,225.00,10,100,2 - Trace,0,68,17,0,0,-1,225,20,Low,Low,0,0,1,130,0,6,0,2,0,0,"Poor visibility. Consolidating, moist snowpack. A little new snow over summits overnight.",
2022/02/13 12:25,Lochaber,KM,194731,219400,773100,56.814229,-4.9602775,1200,70,25,Aonach Mor plateau,-1.2,130.00,5,10,0 - None,0,70,5,0,0,-1,210,31,Moderate,Moderate,0,0.5,2,118,0,6,0,1,0,-0.6,,
2022/02/13 12:00,Northern Cairngorms,KG/MB,979028,297900,702800,56.2068,-3.6474882,1010,55,33,Twin burns,0.5,150.00,5,100,2 - Trace,0,160,10,0,0,-2,226,47,Moderate,Moderate,0,1.4,2,168,0,6,5,1,0,-0.4,,
2022/02/13 10:30,Glencoe,GP,148555,214800,755500,56.65453,-5.0228068,900,100,30,Stob Coire nan Lochan E aspect,0.7,210.00,5,100,6 - Snow Showers,0,85,10,0,0,-1,210,31,Low,Low,0,0,1,140,0,6,0,2,0,0,,
2022/02/13 10:20,Torridon,SA,989607,298900,760700,56.726973,-3.6538321,704,8,30,"Creag Dhubh, Beinn Eighe",2.6,220.00,4,70,4 - Light Showers,1,80,18,0,0,7,225,7,Moderate,Moderate,0,0,2,144,0,6,0,1,0,0,,
2022/02/12 12:40,Southern Cairngorms,DG/PN,157773,215700,777300,56.850456,-5.0238356,900,50,25,Coire Fionn,2.2,200.00,5,100,4 - Light Showers,0,80,10,0,1,2.1,205,40,Moderate,Low,0,1,3,62,0,6,0,2,0,0,,
2022/02/12 12:25,Creag Meagaidh,TR,458900,245800,790000,56.975404,-4.5385754,840,95,26,"Top of Trident Gullies, Coire Ardair.",2.1,235.00,35,100,4 - Light Showers,0,100,80,0,1,1,235,40,Considerable -,Moderate,1021,0.8,2,126,0,6,0,2,0,0,,
2022/02/12 12:00,Northern Cairngorms,MB/KG,997043,299700,704300,56.220654,-3.6190524,995,70,28,Cas ridge E side,2.6,220.00,25,80,6 - Snow Showers,0,155,10,0,1,0,206,53,Moderate,Moderate,0,2.7,1,162,0,6,0,1,0,0,"Fail @ 12cm
Fail @ 60cm on decomposing crystals.",
2022/02/12 11:30,Lochaber,BM,168718,216800,771800,56.80155,-5.0018726,820,20,30,Ben Nevis,2.9,170.00,15,100,4 - Light Showers,0,113,15,0,1,0.8,206,43,Considerable +,Considerable -,8800,1.2,1,114,0,6,0,2,0,0,Multiple weaknesses in the snowpack.,
2022/02/12 10:50,Glencoe,GP,188544,218800,754400,56.646227,-4.9568805,810,100,25,Buachaille Etive Beag,2.5,240.00,35,100,6 - Snow Showers,0,105,10,0,1,0.7,225,30,Considerable +,Low,8800,0.4,1,134,0,6,0,10,0,0,Weaknesses remain within the snowpack,
2022/02/12 10:32,Torridon,SA,786425,278600,742500,56.558725,-3.9768072,776,90,25,Sgurr a Chaorachain,2.5,200.00,30,100,6 - Snow Showers,0,28,8,0,1,3,195,37,Moderate,Moderate,0,0,2,138,0,6,0,2,0,0,,
2022/02/11 12:30,Lochaber,GM,192740,219200,774000,56.822226,-4.9641871,1170,90,40,Aonach Mor,-4,225.00,30,100,0 - None,1,0,20,0,0,-3.8,238,14,Considerable -,Considerable +,0,0.9,1,114,0,6,0,1,0,-4.7,,
2022/02/11 12:00,Southern Cairngorms,DG/SN,244861,224400,786100,56.93278,-4.8874688,1135,45,25,Can Carn Beag,-3.6,270.00,5,100,0 - None,1,30,10,0,0,-3.9,299,34,Moderate,Moderate,0,3.3,4,62,0,6,0,1,0,-4.5,,
2022/02/11 11:30,Northern Cairngorms,BF,995020,299500,702000,56.199956,-3.6214039,1050,90,10,Above Hell's Lum,-3.3,200.00,5,100,2 - Trace,0,55,2,0,0,-4.5,258,39,Moderate,Moderate,0,1.1,2,160,0,6,0,1,0,-3.9,Failure at 30cm ,
2022/02/11 11:15,Creag Meagaidh,AT,434864,243400,786400,56.94229,-4.5757848,860,355,30,Moy Corrie,-2.1,32.00,10,100,4 - Light Showers,0,60,20,0,0,-4,203,26,Considerable -,Considerable -,0,2.3,1,122,0,6,5,1,0,-4.1,failures at 4cm and 17cm ,
2022/02/11 10:45,Torridon,HM,967592,296700,759200,56.713021,-3.6891638,810,40,35,"Coire an Laoigh, Beinn Eighe",-0.8,220.00,5,100,0 - None,0,60,15,0,0,-1,210,40,Moderate,Moderate,0,0.9,4,138,0,6,5,1,0,-1.7,Weak Layers within snowpack,
2022/02/11 10:45,Glencoe,GP,252505,225200,750500,56.613668,-4.850008,1050,60,25,Meall a Bhuiridh,-3,200.00,20,100,4 - Light Showers,1,115,5,0,0,-3.7,245,21,Considerable -,Considerable +,0,1.2,1,130,0,6,0,1,0,-4.1,Weaknesses in snowpack,
2022/02/10 12:30,Lochaber,GM,169722,216900,772200,56.805178,-5.0005244,745,270,20,Ben Nevis,-0.6,320.00,20,100,6 - Snow Showers,1,30,10,0,0,-3.2,229,37,Considerable +,Considerable -,2011,1.2,1,108,0,6,0,1,0,-1.3,,
2022/02/10 11:45,Southern Cairngorms,SN,132793,213200,779300,56.867398,-5.0662341,890,70,20,Carn Aosda Corrie,-1.5,265.00,20,100,6 - Snow Showers,1,75,38,0,0,-2,249,37,Moderate,Moderate,0,1,2,56,0,6,0,1,0,-2.4,Failure in the softer density snow at 28cm. Conditions deteriorated considerably after midday when profile was completed.,
2022/02/10 11:30,Northern Cairngorms,BF,000045,240000,750000,56.614468,-4.6088257,1010,10,10,Coire Cas,-1.8,280.00,20,100,8 - Snow,1,61,25,0,0,-3,241,53,Considerable -,Considerable -,4400,1.5,1,152,0,6,0,1,0,-2.8,Failure at 31cm . Very deep isolated accumulations,
2022/02/10 11:15,Glencoe,BM,258506,225800,750600,56.614788,-4.840312,850,90,30,Meall a' Bhuiridh,-0.6,270.00,35,100,6 - Snow Showers,1,120,20,0,0,-2.6,255,35,Considerable -,Considerable -,4400,1.1,1,124,0,6,5,1,0,-1.8,Multiple weaknesses in the snowpack.,
2022/02/10 11:15,Creag Meagaidh,AT,457884,245700,788400,56.961012,-4.5392411,700,136,50,Sron a'Choire,0,270.00,25,100,6 - Snow Showers,1,70,30,0,0,-3,270,53,Considerable -,Considerable -,0,0.9,1,116,0,6,5,2,0,-0.6,,
2022/02/10 11:00,Torridon,HM/AC,992608,299200,760800,56.727936,-3.648971,530,90,35,"Creag Dhubh Beinn Eighe, East Corrie",0.4,300.00,35,100,4 - Light Showers,1,45,15,0,0,-1,360,60,Moderate,Moderate,0,0,2,134,0,6,5,2,0,0,Fail @ 9cm on graupel,
2022/02/09 13:00,Creag Meagaidh,WS,655800,265500,780000,56.891792,-4.2094433,800,30,30,Drumochter East,-2.2,250.00,30,100,6 - Snow Showers,1,82,30,0,0,-5,250,43,Moderate,Considerable -,0,1.6,2,110,0,6,0,1,0,-2.5,Shears in new surface layers at 12 and 20cm,
2022/02/09 12:45,Lochaber,GM,187746,218700,774600,56.827414,-4.9727943,860,51,15,Aonach Mor,-2.8,225.00,30,95,4 - Light Showers,1,40,10,0,0,-2.9,227,43,Considerable -,Considerable -,4400,1.4,1,104,0,6,0,1,0,-2.8,Several failures in the snowpack ,
2022/02/09 12:00,Northern Cairngorms,KG/AB,997043,299700,704300,56.220654,-3.6190524,1000,60,25,Cas ridge E side,-4.1,280.00,25,98,6 - Snow Showers,1,80,20,0,0,-5,248,59,Moderate,Considerable -,0,1.7,3,146,0,6,5,1,0,-3.8,,
2022/02/09 11:20,Southern Cairngorms,AT / SN,025955,,,,,850,72,40,Carn Crom,-2.4,270.00,10,80,4 - Light Showers,1,120,30,0,0,-3.2,260,43,Moderate,Moderate,0,0.7,1,52,0,6,0,1,0,-1.9,,
2022/02/09 11:20,Glencoe,BM,183540,218300,754000,56.642444,-4.9647411,895,90,25,Buachaille Etive Beag,-2.5,250.00,30,80,4 - Light Showers,1,67,15,0,0,-3.9,260,35,Moderate,Considerable -,0,1.5,1,120,0,6,0,1,0,-2.4,Multiple weaknesses in the snowpack.,
2022/02/09 11:00,Torridon,DG,967594,296700,759400,56.714817,-3.6892443,750,100,30,"Coire an Laoigh, Beinn Eighe",-2.3,110.00,10,100,4 - Light Showers,1,100,15,0,0,-3,270,40,Moderate,Moderate,0,1,4,130,0,6,5,1,0,-1.8,,
2022/02/08 12:10,Creag Meagaidh,TR,428885,242800,788500,56.960932,-4.586942,890,90,30,"Inner Coire, Coire Ardair",-0.9,270.00,30,98,4 - Light Showers,1,65,17,0,0,-3,265,40,Low,Moderate,3023,0.8,3,106,0,6,5,1,0,-0.2,Some drifting but little accumulating. Pockets of thin windslab above 950m. Widespread MF crust.,
2022/02/08 12:00,Northern Cairngorms,KG,978036,297800,703600,56.213963,-3.649408,920,90,28,Lochain,-0.4,270.00,25,90,4 - Light Showers,1,40,20,0,0,-3,249,68,Low,Moderate,0,0.6,2,142,0,6,5,1,0,0,,
2022/02/08 11:55,Southern Cairngorms,PN / AT,251856,225100,785600,56.928559,-4.8756359,830,80,34,Lochnagar ,0.6,300.00,10,60,0 - None,0,30,10,0,0,-1,249,68,Low,Low,0,0,1,52,0,6,0,1,0,0,Very windy high up so stayed low,
2022/02/08 11:54,Lochaber,RB,195752,219500,775200,56.833108,-4.9601286,920,85,38,Aonach Mor,-1.9,270.00,20,90,2 - Trace,1,80,15,0,0,-2.9,227,43,Low,Moderate,0,0.1,3,102,0,6,0,2,0,0,Failure at 34cm. Isothermal snowpack.,
2022/02/08 11:30,Torridon,DG,937584,293700,758400,56.705164,-3.7378164,620,45,20,Coireag Dubh Beagg,1.2,320.00,10,90,4 - Light Showers,1,40,10,0,0,-1,250,37,Low,Moderate,0,0,2,126,0,6,0,1,0,0,,
2022/02/08 11:15,Glencoe,PM,253506,225300,750600,56.614602,-4.8484484,940,45,33,Meall a'Bhuiridh,-1.7,220.00,15,100,4 - Light Showers,1,70,10,0,0,-2.9,227,43,Moderate,Moderate,4400,0.6,3,116,0,6,0,1,0,-1.8,,
2022/02/07 13:15,Northern Cairngorms,BF,982028,298200,702800,56.206864,-3.6426543,950,10,20,Coire an Lochan,2.1,150.00,15,100,4 - Light Showers,0,52,10,0,0,1,262,48,Moderate,Low,0,1.1,3,138,0,6,0,1,0,-1.1,,
2022/02/07 12:30,Southern Cairngorms,PN / AT,164772,216400,777200,56.849836,-5.0123026,950,20,28,Glas Maol,0,120.00,5,100,0 - None,0,60,10,0,0,-1.9,280,35,Moderate,Low,0,3.3,0,52,0,6,0,1,0,-3.3,,
2022/02/07 12:25,Creag Meagaidh,TR,443894,244300,789400,56.969517,-4.562856,810,92,28,"Lifa Gully, Coire Chriochairein.",2,245.00,15,100,0 - None,0,84,52,0,1,1.5,248,30,Considerable +,Moderate,8800,3.1,2,106,0,6,0,1,0,0,Steady rise in air temp with a little rain. Noon summit temp +1.7. Cornice debris nearby. Expecting more instability overnight 07/08th Feb after more rain.,
2022/02/07 11:25,Glencoe,PM,256506,225600,750600,56.614714,-4.8435666,870,35,39,Meall a'Bhuiridh,2.4,285.00,4,100,4 - Light Showers,1,95,30,0,1,2.5,223,34,Considerable +,Considerable -,8800,2.7,1,112,0,6,5,1,0,-0.6,Instabilities persist in the snowpack. Field tests showed weakly bonded windslab.,
2022/02/07 11:10,Lochaber,RB,162718,216200,771800,56.801313,-5.0116834,930,125,32,"Ben Nevis, Corrie na Ciste",1.9,90.00,30,100,0 - None,0,80,15,0,1,2.5,223,44,Considerable -,Moderate,4400,1.5,2,102,0,6,0,2,0,0,,
2022/02/07 10:30,Torridon,GP,966595,296600,759500,56.715693,-3.6909175,810,30,30,"Coire an Laoigh, Beinn Eighe",1.5,130.00,30,100,4 - Light Showers,0,84,10,0,1,2,225,45,Moderate,Low,0,1.6,1,122,0,6,5,2,0,-1.6,,
2022/02/06 15:24,Creag Meagaidh,WS,396867,239600,786700,56.943681,-4.6383644,820,90,30,Beinn a Chaorainn,-3.8,290.00,30,80,8 - Snow,1,34,20,0,0,-6,290,47,Considerable -,Considerable +,0,2.5,3,98,0,6,0,1,0,-0.8,Touchy surface layers failing on graupel,
2022/02/06 12:00,Southern Cairngorms,SN,212847,221200,784700,56.918995,-4.9389919,960,100,20,Sagairt Mor/Beag Burn Line,-5.1,320.00,25,100,6 - Snow Showers,1,50,40,0,0,-5.3,273,39,Moderate,Moderate,0,1.5,2,46,0,6,0,1,0,-4.6,Failures within the snowpack under additional loading,
2022/02/06 11:40,Lochaber,HM,162718,216200,771800,56.801313,-5.0116834,920,180,30,Ben Nevis,-3.6,20.00,30,100,6 - Snow Showers,1,95,60,0,0,-6,240,34,Considerable +,Considerable +,5011,1.6,3,96,0,6,0,1,0,-3.8,Multiple failures within the snowpack,
2022/02/06 11:15,Torridon,GP,989607,298900,760700,56.726973,-3.6538321,700,30,30,"Creag Dubh, Beinn Eighe",-2.4,300.00,35,80,6 - Snow Showers,1,65,15,0,0,-4,280,40,Moderate,Moderate,0,1.3,1,116,0,6,5,1,0,-2.4,,
2022/02/06 11:05,Glencoe,JT,150555,215000,755500,56.654609,-5.0195493,815,88,32,Aonach Dubh,-2.4,310.00,20,70,6 - Snow Showers,1,35,20,0,0,-5.4,240,34,Moderate,Considerable -,3011,1,3,106,0,6,5,1,0,-1.5,,
2022/02/06 11:00,Northern Cairngorms,BF,992024,299200,702400,56.203485,-3.626389,1100,130,20,Coire Domhain,-5.4,300.00,15,100,6 - Snow Showers,1,100,10,0,0,-5.8,262,57,Moderate,Moderate,0,1.1,2,132,0,6,0,1,0,-4.5,Failure @ 10cm depth,
2022/02/05 15:14,Creag Meagaidh,WS/SL,462895,246200,789500,56.97105,-4.5316972,700,140,30,Btm Balloon Gully,1.3,270.00,35,100,6 - Snow Showers,1,60,30,0,0,-2,270,51,Considerable -,Considerable -,0,1.3,3,92,0,6,0,2,0,-0.2,rain on snow at pit site - cold deposits with some graupel. Wet and consolidated at lower levels,
2022/02/05 12:00,Southern Cairngorms,SN,161770,216100,777000,56.847923,-5.0170698,970,20,30,"Coire Fionn, Glas Maol",-0.7,250.00,25,100,6 - Snow Showers,1,70,20,0,0,-0.6,267,38,Moderate,Moderate,0,0.5,3,40,0,6,0,1,0,-0.7,Not to ground  - impenetrable ice layer at 60-70cm,
2022/02/05 11:50,Torridon,GP,966594,296600,759400,56.714795,-3.6908772,810,110,35,"Coire an Laoigh, Beinn Eighe",-0.1,270.00,45,100,6 - Snow Showers,1,75,10,0,0,-1.5,270,55,Moderate,Considerable -,0,1,1,110,0,6,5,2,0,-0.6,,
2022/02/05 11:30,Lochaber,HM,165721,216500,772100,56.804123,-5.0069937,720,60,20,Above CIC Hut,1.4,270.00,40,100,6 - Snow Showers,1,50,40,0,0,-1.6,230,60,Considerable -,Considerable -,4400,0,1,90,0,6,0,2,0,0,,
2022/02/05 10:59,Glencoe,JT,209575,220900,757500,56.674848,-4.9248366,719,108,40,Stob Chic Mhartuin,0.7,239.00,20,0,6 - Snow Showers,0,100,25,0,0,-1.1,237,34,Moderate,Moderate,0,1.7,2,100,0,6,5,10,0,-0.5,Isolated drift in wind sheltered location.,
2022/02/05 10:30,Northern Cairngorms,BF,012046,,,,,1100,110,20,Ciste Mhearad,-0.6,280.00,20,100,6 - Snow Showers,0,155,15,0,0,-1.5,258,60,Moderate,Considerable -,0,0.7,2,126,0,6,0,1,0,-1.3,Failure @ 20cm depth,
2022/02/04 12:20,Lochaber,HM,195752,219500,775200,56.833108,-4.9601286,860,40,35,"East Side Nid Ridge, Aonach Mor",-2.5,240.00,20,90,6 - Snow Showers,1,40,30,0,0,-5.3,226,41,Moderate,Considerable -,0,1.2,4,86,0,6,5,1,0,-2.8,Multiple fails in fresh windslab,
2022/02/04 12:05,Southern Cairngorms,JT / PN,251853,225100,785300,56.925867,-4.8754287,1045,15,28,Central Gully (Lochnagar),-3.3,290.00,15,90,4 - Light Showers,0,100,0,0,0,-3.9,263,38,Low,Moderate,0,0.7,4,36,0,6,5,2,0,-2.5,,
2022/02/04 11:55,Creag Meagaidh,KM,441894,244100,789400,56.969449,-4.5661422,900,90,30,Coire a'Chriochairein,-4.3,270.00,25,100,6 - Snow Showers,1,50,30,0,0,-5,250,45,Moderate,Considerable -,0,2.3,2,86,0,6,0,1,0,-4.1,Failure at 20cm.,
2022/02/04 11:45,Glencoe,PM,256506,225600,750600,56.614714,-4.8435666,950,100,27,Meall a'Bhuiridh,-3.8,275.00,17,100,6 - Snow Showers,1,90,30,0,0,-5.5,226,41,Moderate,Moderate,0,0.9,1,94,0,6,5,1,0,-4.1,,
2022/02/04 11:30,Northern Cairngorms,KG,997043,299700,704300,56.220654,-3.6190524,990,60,30,Cas ridge E side,-4.1,280.00,20,80,4 - Light Showers,1,40,15,0,0,-6,253,59,Low,Moderate,0,,1,122,0,6,5,1,0,-1.8,Isolated patch of windslab,
2022/02/04 11:30,Torridon,DG,137603,213700,760300,56.697154,-5.044197,681,100,20,Meall  a\\\'Chaorainn,-4,290.00,40,100,6 - Snow Showers,1,60,30,0,0,0,,0,Moderate,Considerable -,0,2.1,2,104,0,6,0,1,0,-2.2,Failures in the new windslab.,
2022/02/03 13:01,Southern Cairngorms,JT / PN,024985,,,,,770,120,25,Coire an Lochain Uaine,5.3,250.00,10,90,0 - None,0,73,5,0,1,3.1,248,29,Low,Low,0,0,4,36,0,6,0,2,0,0,Stable melt-freeze snowpack,
2022/02/03 12:00,Lochaber,GM,167722,216700,772200,56.805099,-5.003795,675,,0,CIC Hut,4.8,280.00,10,100,0 - None,0,0,0,0,1,1.7,226,33,Low,Moderate,0,,,84,0,6,0,2,0,0,Wet and generally stable snowpack. Weather Obs only,
2022/02/03 12:00,Glencoe,AP,258504,225800,750400,56.612994,-4.8401771,900,60,25,Meall a Bhuiridh,3,270.00,25,100,0 - None,0,40,20,0,1,2,220,55,Low,Moderate,0,0,2,94,0,6,0,2,0,0,Wet and mild at present forecast much colder later today with new snow.,
2022/02/03 11:30,Northern Cairngorms,KG,010042,,,,,1150,80,20,E side Cairngorm,1.2,245.00,30,95,0 - None,0,20,0,0,1,2,244,45,Low,Low,0,0,1,122,0,6,0,1,0,0,,
2022/02/03 10:37,Torridon,AC,238762,223800,776200,56.84373,-4.8904437,342,200,24,"Meall Leacachain, Fannaichs.",7.6,292.00,14,95,4 - Light Showers,0,0,0,0,1,3,225,62,Low,Moderate,0,,,100,0,6,0,2,0,0,No snow at observation site.,
2022/02/03 09:40,Creag Meagaidh,HM,389852,238900,785200,56.929977,-4.6489024,800,120,25,Beinn a Chaorainn - East Corrie,4.4,200.00,20,100,0 - None,0,40,17,0,1,3,220,45,Low,Moderate,0,0,2,86,0,6,0,2,0,0,,
2022/02/02 12:30,Glencoe,AP,258503,225800,750300,56.612097,-4.8401097,950,60,25,Meall a Bhuiridh,3.6,270.00,25,100,0 - None,0,50,15,0,1,4,250,35,Low,Moderate,0,0,3,94,0,6,0,2,0,0,,
